,elevation,mindate,maxdate,latitude,name,datacoverage,id,elevationUnit,longitude
0,191.1,2009-01-27,2011-12-31,41.892133,"ASHTABULA 1.6 WNW, OH US",0.1749,GHCND:US1OHAB0002,METERS,-80.824356
1,210.6,2009-05-01,2013-11-29,41.8757,"ASHTABULA 2.1 E, OH US",0.3835,GHCND:US1OHAB0004,METERS,-80.7567
2,301.1,2014-08-03,2016-12-07,41.751112,"PIERPONT 0.8 W, OH US",0.3939,GHCND:US1OHAB0008,METERS,-80.583433
3,200.9,2018-06-01,2018-11-16,41.87737,"ASHTABULA 1.5 E, OH US",0.7101,GHCND:US1OHAB0015,METERS,-80.76853
4,301.1,2020-07-26,2025-09-24,41.740038,"PIERPONT 1.5 WSW, OH US",0.4531,GHCND:US1OHAB0016,METERS,-80.59443
5,193.5,2023-04-29,2025-12-09,41.90366,"ASHTABULA 1.8 NNE, OH US",0.9822,GHCND:US1OHAB0021,METERS,-80.78286
6,309.7,2024-04-22,2025-11-11,41.59147,"ANDOVER 2.1 ESE, OH US",0.7346,GHCND:US1OHAB0026,METERS,-80.53584
7,254.8,2020-03-25,2025-12-09,38.939891,"SEAMAN 3.4 E, OH US",0.9971,GHCND:US1OHAD0005,METERS,-83.509029
8,237.1,2021-04-04,2025-12-04,39.007479,"PEEBLES 4.2 N, OH US",0.9936,GHCND:US1OHAD0006,METERS,-83.414601
9,256.0,2009-02-10,2025-10-30,40.7035,"SPENCERVILLE 0.3 SSE, OH US",0.1433,GHCND:US1OHAL0001,METERS,-84.3516
10,264.3,2009-02-05,2025-12-09,40.7739,"LIMA 2.7 NE, OH US",0.9777,GHCND:US1OHAL0005,METERS,-84.08
11,252.4,2009-02-05,2009-12-30,40.722816,"SPENCERVILLE 1.1 NNE, OH US",0.8815,GHCND:US1OHAL0006,METERS,-84.343991
12,238.7,2009-10-06,2025-12-09,40.833497,"DELPHOS 2.3 ESE, OH US",0.5268,GHCND:US1OHAL0008,METERS,-84.2981719
13,246.0,2011-08-26,2022-08-21,40.77403,"ELIDA 0.8 S, OH US",0.1121,GHCND:US1OHAL0009,METERS,-84.20207
14,270.1,2018-09-12,2025-12-09,40.700909,"LIMA 3.0 SSE, OH US",0.9214,GHCND:US1OHAL0010,METERS,-84.096605
15,241.4,2020-10-31,2025-10-31,40.796819,"ELIDA 1.4 WNW, OH US",0.2315,GHCND:US1OHAL0013,METERS,-84.222965
16,282.5,2021-11-26,2025-12-08,40.6560821,"LIMA 7.3 SE, OH US",0.8962,GHCND:US1OHAL0014,METERS,-84.0333732
17,332.5,2009-05-28,2018-03-01,40.930174,"ASHLAND 4.7 NNW, OH US",0.1444,GHCND:US1OHAS0001,METERS,-82.35048
18,360.0,2010-03-22,2025-12-09,40.8326,"ASHLAND 3.9 SW, OH US",0.852,GHCND:US1OHAS0002,METERS,-82.3763
19,348.7,2015-03-01,2016-02-18,40.873789,"ASHLAND 1.0 WNW, OH US",0.9437,GHCND:US1OHAS0004,METERS,-82.3338
20,336.8,2015-03-27,2023-08-24,41.042,"SULLIVAN 1.1 NNE, OH US",0.7839,GHCND:US1OHAS0005,METERS,-82.2126
21,302.4,2001-01-17,2025-11-26,40.669,"LOUDONVILLE 3.0 NW, OH US",0.2717,GHCND:US1OHAS0006,METERS,-82.269
22,352.3,2019-08-01,2025-12-08,40.866061,"POLK 5.5 S, OH US",0.8372,GHCND:US1OHAS0007,METERS,-82.2003
23,339.5,2019-09-05,2025-12-02,41.0124,"NOVA 3.8 WSW, OH US",0.8106,GHCND:US1OHAS0008,METERS,-82.37353
24,379.2,2019-11-17,2025-12-09,40.974347,"POLK 2.0 N, OH US",0.9192,GHCND:US1OHAS0009,METERS,-82.214465
25,251.8,2009-02-07,2015-01-06,39.249897,"GUYSVILLE 4.3 SE, OH US",0.9902,GHCND:US1OHAT0002,METERS,-81.869444
26,274.9,2009-02-01,2025-12-07,39.37182,"STEWART 4.6 NNE, OH US",0.8557,GHCND:US1OHAT0003,METERS,-81.86625
27,234.1,2009-05-22,2025-12-09,39.372215,"AMESVILLE 2.6 SE, OH US",0.9835,GHCND:US1OHAT0005,METERS,-81.923065
28,262.7,2009-05-25,2025-12-08,39.2728148,"ALBANY 4.1 NW, OH US",0.8934,GHCND:US1OHAT0006,METERS,-82.2430117
29,276.1,2009-06-02,2025-12-07,39.3091778,"NEW MARSHFIELD 1.6 SW, OH US",0.7388,GHCND:US1OHAT0007,METERS,-82.2327634
30,228.9,2009-06-08,2010-12-06,39.2851,"ATHENS 4.1 SW, OH US",0.819,GHCND:US1OHAT0008,METERS,-82.1528
31,224.9,2009-07-25,2025-12-09,39.4676168,"GLOUSTER 3.6 SW, OH US",0.7902,GHCND:US1OHAT0009,METERS,-82.133563
32,229.8,2010-03-15,2010-07-19,39.460793,"NELSONVILLE 0.1 N, OH US",0.811,GHCND:US1OHAT0010,METERS,-82.225978
33,218.2,2010-08-23,2019-03-28,39.199841,"GUYSVILLE 6.5 SSW, OH US",0.4121,GHCND:US1OHAT0011,METERS,-81.960324
34,227.7,2010-10-13,2018-02-02,39.4067,"AMESVILLE 0.7 WNW, OH US",0.9876,GHCND:US1OHAT0012,METERS,-81.9657
35,267.9,2010-10-22,2019-05-31,39.3195,"STEWART 1.4 NW, OH US",0.8177,GHCND:US1OHAT0013,METERS,-81.91516667
36,195.7,2011-09-30,2014-12-12,39.337606,"ATHENS 1.0 NNE, OH US",0.4624,GHCND:US1OHAT0014,METERS,-82.091273
37,289.3,2013-07-01,2025-12-09,39.29397,"ATHENS 2.3 SSE, OH US",0.941,GHCND:US1OHAT0016,METERS,-82.079316
38,201.2,2017-03-07,2025-12-09,39.38182222,"CHAUNCEY 1.6 SE, OH US",0.7241,GHCND:US1OHAT0020,METERS,-82.107825
39,256.6,2017-07-16,2025-12-09,39.3099,"ATHENS 4.6 ESE, OH US",0.9948,GHCND:US1OHAT0021,METERS,-82.0128
40,235.3,2015-10-18,2025-11-19,39.36027778,"ATHENS 7.0 WNW, OH US",0.6891,GHCND:US1OHAT0022,METERS,-82.21944444
41,234.1,2018-07-17,2022-11-16,39.2302,"ALBANY 0.6 NW, OH US",0.8485,GHCND:US1OHAT0023,METERS,-82.20497
42,274.9,2019-04-08,2019-08-07,39.30564,"ATHENS 1.7 SW, OH US",1.0,GHCND:US1OHAT0024,METERS,-82.11781
43,210.0,2020-10-12,2024-11-13,39.460754,"NELSONVILLE 1.4 W, OH US",0.9378,GHCND:US1OHAT0026,METERS,-82.25243
44,200.6,2021-07-29,2023-10-20,39.302297,"ATHENS 3.5 WSW, OH US",0.2015,GHCND:US1OHAT0027,METERS,-82.154833
45,222.2,2021-07-05,2025-12-02,39.373184,"ATHENS 6.0 NW, OH US",0.9708,GHCND:US1OHAT0028,METERS,-82.189583
46,217.6,2024-04-18,2025-02-16,39.3631034,"THE PLAINS 0.4 ESE, OH US",0.577,GHCND:US1OHAT0029,METERS,-82.126797
47,274.0,2009-01-28,2025-10-22,40.568,"WAPAKONETA 0.3 SW, OH US",0.5325,GHCND:US1OHAZ0001,METERS,-84.1963
48,283.2,2009-07-23,2015-11-06,40.50908,"ST. MARYS 3.2 SW, OH US",0.2302,GHCND:US1OHAZ0002,METERS,-84.431916
49,275.8,2011-08-14,2013-01-14,40.492339,"NEW KNOXVILLE 0.2 SE, OH US",0.6269,GHCND:US1OHAZ0004,METERS,-84.316233
50,289.0,2011-12-01,2016-06-04,40.4226,"NEW BREMEN 1.1 SSW, OH US",0.2203,GHCND:US1OHAZ0007,METERS,-84.3864
51,313.0,2012-01-03,2015-10-01,40.5761,"WAYNESFIELD 3.6 ESE, OH US",0.2142,GHCND:US1OHAZ0008,METERS,-83.9149
52,281.9,2013-04-14,2015-01-05,40.5826009,"WAPAKONETA 1.2 NW, OH US",0.5902,GHCND:US1OHAZ0012,METERS,-84.207996
53,270.4,2017-03-06,2020-09-09,40.501916,"ST. MARYS 2.9 S, OH US",0.9416,GHCND:US1OHAZ0015,METERS,-84.392861
54,272.5,2019-06-08,2023-08-04,40.567807,"WAPAKONETA 0.9 E, OH US",0.9223,GHCND:US1OHAZ0018,METERS,-84.175446
55,283.2,2019-08-22,2025-10-22,40.450959,"NEW BREMEN 1.9 WNW, OH US",0.8083,GHCND:US1OHAZ0019,METERS,-84.411588
56,364.2,2018-11-18,2025-12-09,40.14675,"MOUNT PLEASANT 2.9 SW, OH US",0.4824,GHCND:US1OHBL0006,METERS,-80.83986
57,285.9,2009-02-01,2010-01-26,39.026012,"MOUNT ORAB 0.3 SE, OH US",0.8111,GHCND:US1OHBR0002,METERS,-83.918913
58,289.6,2011-03-20,2022-05-04,39.155,"FAYETTEVILLE 2.2 S, OH US",0.5059,GHCND:US1OHBR0004,METERS,-83.9324
59,277.7,2016-10-31,2020-06-02,39.185024,"FAYETTEVILLE 0.5 W, OH US",0.9985,GHCND:US1OHBR0008,METERS,-83.942033
60,154.5,2015-05-27,2022-01-20,38.72683,"RIPLEY 0.9 SSE, OH US",0.2752,GHCND:US1OHBR0009,METERS,-83.83405
61,310.3,2019-04-14,2023-05-08,38.904344,"RUSSELLVILLE 2.6 N, OH US",0.1568,GHCND:US1OHBR0012,METERS,-83.781189
62,284.7,2023-02-28,2025-12-09,38.87215,"GEORGETOWN 0.5 NE, OH US",0.8848,GHCND:US1OHBR0017,METERS,-83.89652
63,302.4,2023-03-18,2025-12-08,38.90481,"HAMERSVILLE 1.2 SE, OH US",0.99,GHCND:US1OHBR0018,METERS,-83.97214
64,213.1,2009-02-01,2025-12-08,39.3933,"HAMILTON 4.7 E, OH US",0.6773,GHCND:US1OHBT0001,METERS,-84.477
65,227.1,2009-02-10,2009-12-18,39.38827,"BECKETT RIDGE 3.9 NW, OH US",0.7179,GHCND:US1OHBT0002,METERS,-84.48621
66,267.0,2009-02-10,2009-07-15,39.33098,"WEST CHESTER 2.5 E, OH US",0.8846,GHCND:US1OHBT0003,METERS,-84.36163
67,275.2,2009-06-16,2010-07-16,39.307331,"WEST CHESTER 2.9 SE, OH US",0.7071,GHCND:US1OHBT0006,METERS,-84.362703
68,192.0,2009-06-18,2010-04-09,39.46897,"TRENTON 0.7 SE, OH US",0.6318,GHCND:US1OHBT0007,METERS,-84.454006
69,292.9,2009-08-10,2011-06-26,39.483745,"OXFORD 1.5 S, OH US",0.2012,GHCND:US1OHBT0008,METERS,-84.74672
70,244.4,2011-04-03,2011-12-07,39.30186,"SHARONVILLE 1.6 NNE, OH US",0.6426,GHCND:US1OHBT0014,METERS,-84.394012
71,214.0,2013-05-07,2016-04-02,39.405492,"HAMILTON 1.5 NW, OH US",0.9708,GHCND:US1OHBT0017,METERS,-84.583514
72,296.6,2013-08-07,2019-07-27,39.5515,"SOMERVILLE 3.0 ESE, OH US",0.4658,GHCND:US1OHBT0018,METERS,-84.584
73,175.0,2017-11-26,2025-05-17,39.334357,"FAIRFIELD 1.7 W, OH US",0.2278,GHCND:US1OHBT0021,METERS,-84.574672
74,197.2,2018-02-27,2025-12-09,39.4077,"HAMILTON 1.2 NNW, OH US",0.9441,GHCND:US1OHBT0022,METERS,-84.5712
75,253.0,2019-10-01,2022-09-22,39.396477,"MONROE 3.9 SSW, OH US",0.2601,GHCND:US1OHBT0031,METERS,-84.38339
76,221.9,2020-05-14,2025-12-09,39.5386733,"MIDDLETOWN 2.7 NNE, OH US",0.972,GHCND:US1OHBT0034,METERS,-84.346471
77,200.3,2020-05-28,2025-01-14,39.367417,"HAMILTON 4.3 ESE, OH US",0.5836,GHCND:US1OHBT0035,METERS,-84.488571
78,260.0,2021-03-20,2025-12-08,39.326599,"BECKETT RIDGE 3.3 ESE, OH US",0.913,GHCND:US1OHBT0037,METERS,-84.3797077
79,213.1,2021-06-08,2025-12-08,39.426251,"HAMILTON 5.3 ENE, OH US",0.9611,GHCND:US1OHBT0039,METERS,-84.476436
80,229.8,2023-03-24,2023-12-18,39.4059313,"MONROE 4.2 SW, OH US",0.5333,GHCND:US1OHBT0045,METERS,-84.4078296
81,232.0,2023-03-21,2025-11-12,39.3771235120537,"BECKETT RIDGE 2.2 NNE, OH US",0.4246,GHCND:US1OHBT0046,METERS,-84.4250182352567
82,198.7,2023-03-25,2025-12-08,39.3252511,"OKEANA 1.7 SSE, OH US",0.7859,GHCND:US1OHBT0050,METERS,-84.7568311
83,391.4,2009-02-09,2019-09-07,40.915371,"SALEM 1.0 NNE, OH US",0.999,GHCND:US1OHCB0002,METERS,-80.845711
84,319.4,2010-03-16,2016-02-07,40.6707278,"WELLSVILLE 4.7 N, OH US",0.0478,GHCND:US1OHCB0004,METERS,-80.6564523
85,378.9,2016-03-24,2017-01-26,40.911987,"SALEM 0.8 NW, OH US",0.9385,GHCND:US1OHCB0006,METERS,-80.863835
86,361.5,2017-03-30,2025-12-09,40.756964,"HANOVERTON 0.4 ENE, OH US",0.9997,GHCND:US1OHCB0008,METERS,-80.929192
87,303.6,2019-11-12,2025-12-08,40.77232,"LISBON 0.4 SW, OH US",0.7391,GHCND:US1OHCB0010,METERS,-80.77513
88,325.5,2020-08-23,2025-12-09,40.664363,"WELLSVILLE 4.3 N, OH US",0.9902,GHCND:US1OHCB0018,METERS,-80.642367
89,341.1,2021-09-13,2025-11-10,40.8872106,"COLUMBIANA 0.1 NNW, OH US",0.6776,GHCND:US1OHCB0022,METERS,-80.689418
90,345.6,2021-08-02,2025-11-27,40.88761,"COLUMBIANA 0.1 NNE, OH US",0.6225,GHCND:US1OHCB0023,METERS,-80.68777
91,363.0,2023-01-16,2025-12-08,40.852738,"LEETONIA 1.9 SSW, OH US",0.9934,GHCND:US1OHCB0029,METERS,-80.775794
92,338.3,2023-03-23,2025-12-08,40.6307275,"WELLSVILLE 1.9 N, OH US",0.9627,GHCND:US1OHCB0031,METERS,-80.6596833
93,257.6,2010-07-09,2022-06-09,40.22007,"COSHOCTON 5.5 WSW, OH US",0.9759,GHCND:US1OHCC0001,METERS,-81.93651
94,295.7,2017-11-30,2025-12-09,40.358255,"FRESNO 2.2 NNE, OH US",0.9847,GHCND:US1OHCC0004,METERS,-81.719258
95,272.5,2024-04-27,2025-12-09,40.287824,"WARSAW 6.0 WSW, OH US",0.9831,GHCND:US1OHCC0008,METERS,-82.096124
96,335.0,2009-02-27,2014-10-21,40.1547924,"ST. PARIS 2.9 NE, OH US",0.2322,GHCND:US1OHCH0001,METERS,-83.9166896
97,323.7,2009-03-25,2014-06-25,40.0903,"URBANA 1.3 SSW, OH US",0.3413,GHCND:US1OHCH0002,METERS,-83.7576
98,359.1,2011-07-23,2014-10-31,40.0410722,"MECHANICSBURG 2.4 SSW, OH US",0.6341,GHCND:US1OHCH0004,METERS,-83.5681398
99,335.3,2011-11-03,2015-07-08,40.169438,"URBANA 4.2 N, OH US",0.1384,GHCND:US1OHCH0006,METERS,-83.747299
100,334.1,1998-06-17,2018-07-22,40.1655556261539,"WOODSTOCK 1.5 WSW, OH US",0.1381,GHCND:US1OHCH0007,METERS,-83.5536217689514
101,363.0,2014-05-18,2018-02-01,40.160165,"ST. PARIS 2.2 N, OH US",0.882,GHCND:US1OHCH0008,METERS,-83.955034
102,389.2,2016-04-25,2018-05-31,40.096328,"MECHANICSBURG 3.2 WNW, OH US",0.4511,GHCND:US1OHCH0010,METERS,-83.611261
103,345.6,2020-05-14,2020-11-30,40.07158217,"URBANA 2.7 SSE, OH US",0.9801,GHCND:US1OHCH0013,METERS,-83.73426483
104,328.9,2020-07-29,2020-12-29,40.0412,"MECHANICSBURG 5.0 WSW, OH US",0.8701,GHCND:US1OHCH0014,METERS,-83.6415
105,328.0,2020-10-17,2022-05-16,40.18166,"URBANA 6.7 NW, OH US",0.227,GHCND:US1OHCH0015,METERS,-83.836143
106,338.9,2020-11-04,2025-11-30,40.157013,"ST PARIS 2.8 NE, OH US",0.674,GHCND:US1OHCH0017,METERS,-83.921723
107,322.2,2024-04-07,2025-12-07,40.107979,"URBANA 0.3 E, OH US",0.9557,GHCND:US1OHCH0021,METERS,-83.745773
108,303.9,2009-01-28,2018-09-24,39.942034,"SPRINGFIELD 1.1 NNW, OH US",0.996,GHCND:US1OHCK0001,METERS,-83.805126
109,333.8,2011-08-09,2012-09-04,39.863295,"SOUTH CHARLESTON 3.0 NNW, OH US",0.944,GHCND:US1OHCK0003,METERS,-83.6723362
110,318.8,2013-01-19,2014-01-16,39.871768951416,"SPRINGFIELD 4.0 SSW, OH US",0.8264,GHCND:US1OHCK0005,METERS,-83.8183364868164
111,266.4,2013-09-13,2014-10-21,39.8630676269531,"FAIRBORN 4.3 NE, OH US",0.6559,GHCND:US1OHCK0007,METERS,-83.9591445922852
112,322.2,2013-11-27,2015-12-03,39.8805465698242,"SPRINGFIELD 3.5 SSE, OH US",0.3039,GHCND:US1OHCK0009,METERS,-83.771598815918
113,319.1,2015-11-01,2018-06-28,39.976051,"SPRINGFIELD 3.5 NNE, OH US",0.8126,GHCND:US1OHCK0011,METERS,-83.780134
114,292.6,2018-02-19,2025-12-09,39.85991,"SPRINGFIELD 7.4 SW, OH US",0.8439,GHCND:US1OHCK0013,METERS,-83.90446
115,289.0,2019-03-10,2025-01-03,39.890964,"SPRINGFIELD 7.0 WSW, OH US",0.5327,GHCND:US1OHCK0014,METERS,-83.91924
116,340.8,2021-05-23,2025-03-21,39.826403,"SOUTH CHARLESTON 0.3 ENE, OH US",0.9507,GHCND:US1OHCK0019,METERS,-83.639476
117,305.7,2021-05-21,2025-12-02,39.867079,"SPRINGFIELD 6.4 SW, OH US",0.9281,GHCND:US1OHCK0020,METERS,-83.888423
118,338.0,2022-05-21,2025-12-09,39.8774718,"SOUTH CHARLESTON 3.8 NNW, OH US",0.9938,GHCND:US1OHCK0024,METERS,-83.6620273
119,322.8,2024-05-08,2025-12-09,39.8562,"SOUTH CHARLESTON 3.5 NW, OH US",0.8348,GHCND:US1OHCK0028,METERS,-83.697
120,296.9,2024-05-31,2025-02-27,39.9374,"SPRINGFIELD 0.7 N, OH US",0.7949,GHCND:US1OHCK0029,METERS,-83.7969
121,255.1,2009-02-04,2025-11-30,39.2155,"LOVELAND 5.3 SE, OH US",0.1945,GHCND:US1OHCM0001,METERS,-84.21768
122,260.9,2009-02-20,2023-11-26,39.214178,"GOSHEN 1.2 SW, OH US",0.6052,GHCND:US1OHCM0002,METERS,-84.171599
123,271.3,2011-02-27,2011-12-09,38.95626055,"BETHEL 4.4 W, OH US",0.8007,GHCND:US1OHCM0005,METERS,-84.16614669
124,253.6,2013-08-09,2014-01-10,39.1036067157984,"SUMMERSIDE 2.1 SE, OH US",0.9032,GHCND:US1OHCM0008,METERS,-84.2561050504446
125,276.8,2014-01-01,2021-10-09,38.930208,"BETHEL 3.8 SW, OH US",0.9045,GHCND:US1OHCM0009,METERS,-84.14204
126,251.8,2014-04-06,2020-11-11,39.106,"BATAVIA 4.5 WNW, OH US",0.1633,GHCND:US1OHCM0010,METERS,-84.2565
127,263.3,2015-03-20,2016-11-29,39.110050201416,"CINCINNATI 12.3 E, OH US",0.2576,GHCND:US1OHCM0011,METERS,-84.2830429077148
128,271.0,2016-05-07,2025-12-08,39.112726,"BATAVIA 3.3 NE, OH US",0.7279,GHCND:US1OHCM0014,METERS,-84.138939
129,270.1,2019-06-20,2022-03-22,39.102171,"MOUNT CARMEL 0.5 NW, OH US",0.9762,GHCND:US1OHCM0016,METERS,-84.305234
130,279.8,2020-04-28,2025-11-08,39.07155,"WITHAMSVILLE 1.4 NW, OH US",0.9797,GHCND:US1OHCM0018,METERS,-84.29
131,253.0,2020-10-16,2025-12-09,39.236784,"LOVELAND 2.1 S, OH US",0.949,GHCND:US1OHCM0021,METERS,-84.2668
132,256.3,2021-05-05,2025-12-09,39.233048,"LOVELAND 3.1 SE, OH US",0.9387,GHCND:US1OHCM0025,METERS,-84.237336
133,275.8,2023-04-24,2025-12-08,39.042828,"WILLIAMSBURG 1.4 ESE, OH US",0.9135,GHCND:US1OHCM0031,METERS,-84.029041
134,262.1,2023-09-23,2025-11-13,39.1002973,"MOUNT CARMEL 0.5 WNW, OH US",0.6003,GHCND:US1OHCM0032,METERS,-84.3066885
135,261.2,2024-05-12,2025-12-07,39.22267,"LOVELAND 5.2 SE, OH US",0.8626,GHCND:US1OHCM0033,METERS,-84.19484
136,305.1,2009-02-01,2015-05-19,39.5411,"PORT WILLIAM 6.1 W, OH US",0.8434,GHCND:US1OHCN0001,METERS,-83.8992
137,313.3,2009-02-07,2013-07-30,39.430798,"WILMINGTON 1.2 SW, OH US",0.0954,GHCND:US1OHCN0002,METERS,-83.845995
138,301.8,2009-03-17,2013-01-16,39.374667,"WILMINGTON 5.4 SSW, OH US",0.5635,GHCND:US1OHCN0004,METERS,-83.878833
139,324.3,2009-05-17,2010-05-17,39.325314,"MARTINSVILLE 2.0 E, OH US",0.3634,GHCND:US1OHCN0005,METERS,-83.773486
140,310.6,2009-09-12,2025-12-08,39.442,"WILMINGTON 3.6 W, OH US",0.9509,GHCND:US1OHCN0006,METERS,-83.8988
141,323.7,1999-01-01,2025-12-09,39.474519,"WILMINGTON 2.2 N, OH US",0.9937,GHCND:US1OHCN0010,METERS,-83.836053
142,311.2,2010-05-10,2012-07-19,39.476964,"WILMINGTON 2.5 NNW, OH US",0.1983,GHCND:US1OHCN0011,METERS,-83.846616
143,303.3,2015-06-23,2025-12-08,39.546075,"WILMINGTON 7.4 NNW, OH US",0.9385,GHCND:US1OHCN0014,METERS,-83.8728
144,298.7,2014-03-21,2025-12-04,39.436533,"WILMINGTON 3.6 W, OH US",0.6664,GHCND:US1OHCN0015,METERS,-83.898264
145,320.6,2015-01-02,2019-09-28,39.421571,"WILMINGTON 1.6 SSE, OH US",0.9983,GHCND:US1OHCN0016,METERS,-83.822257
146,295.4,2018-05-31,2025-12-09,39.418378,"CLARKSVILLE 3.9 ENE, OH US",0.8487,GHCND:US1OHCN0017,METERS,-83.912683
147,302.7,2022-08-31,2025-12-08,39.265149,"MIDLAND 2.9 S, OH US",1.0,GHCND:US1OHCN0024,METERS,-83.920202
148,323.1,2009-02-03,2016-01-19,40.713761,"MINERVA 1.3 SE, OH US",0.9689,GHCND:US1OHCR0001,METERS,-81.088238
149,351.7,2021-02-01,2025-11-14,40.5908757,"CARROLLTON 0.9 NNE, OH US",0.3947,GHCND:US1OHCR0005,METERS,-81.082711
150,321.6,2023-08-29,2025-12-09,40.6781,"CARROLLTON 7.2 NNE, OH US",0.9532,GHCND:US1OHCR0007,METERS,-81.0449
151,347.5,2009-04-01,2021-04-07,40.7302405,"GALION 1.1 W, OH US",0.6287,GHCND:US1OHCW0001,METERS,-82.811701
152,303.9,2009-02-14,2009-07-03,40.794884,"BUCYRUS 0.5 S, OH US",1.0,GHCND:US1OHCW0002,METERS,-82.974204
153,303.9,2009-02-13,2025-12-09,40.814553,"BUCYRUS 1.0 NW, OH US",0.9627,GHCND:US1OHCW0003,METERS,-82.984848
154,310.0,2017-12-19,2024-08-01,40.820049,"BUCYRUS 1.3 NNE, OH US",0.129,GHCND:US1OHCW0005,METERS,-82.962826
155,305.7,2018-01-28,2025-12-09,40.9036,"BUCYRUS 8.7 NE, OH US",0.9339,GHCND:US1OHCW0006,METERS,-82.8745
156,318.2,2020-07-22,2022-12-08,40.7886,"BUCYRUS 1.9 ESE, OH US",0.7471,GHCND:US1OHCW0007,METERS,-82.9426
157,352.7,2024-05-01,2024-12-11,40.758089,"GALION 1.9 NNE, OH US",0.9066,GHCND:US1OHCW0010,METERS,-82.782543
158,222.8,2009-05-18,2009-12-28,41.456787,"FAIRVIEW PARK 1.4 NE, OH US",0.9156,GHCND:US1OHCY0001,METERS,-81.837342
159,209.7,2009-02-03,2009-08-05,41.4819,"LAKEWOOD 1.6 E, OH US",0.6413,GHCND:US1OHCY0002,METERS,-81.7703
160,251.2,2010-07-10,2014-09-11,41.327641,"STRONGSVILLE 1.1 NNE, OH US",0.2177,GHCND:US1OHCY0003,METERS,-81.825351
161,256.9,2009-01-20,2016-08-05,41.564,"RICHMOND HEIGHTS 0.4 NNE, OH US",0.9808,GHCND:US1OHCY0004,METERS,-81.5009
162,209.1,2009-03-19,2011-12-05,41.4643968,"WESTLAKE 0.7 N, OH US",0.1079,GHCND:US1OHCY0006,METERS,-81.9294782
163,185.6,2009-04-15,2009-09-14,41.6287,"EUCLID 3.1 NE, OH US",0.9412,GHCND:US1OHCY0007,METERS,-81.4902
164,359.7,2009-05-01,2016-07-14,41.333968,"BROADVIEW HEIGHTS 1.5 NW, OH US",0.5623,GHCND:US1OHCY0008,METERS,-81.701589
165,326.1,2009-05-18,2018-12-18,41.43222,"CHAGRIN FALLS 0.7 E, OH US",0.2036,GHCND:US1OHCY0009,METERS,-81.37611
166,281.6,2009-12-10,2013-03-20,41.309268,"NORTH ROYALTON 0.3 SW, OH US",0.1362,GHCND:US1OHCY0012,METERS,-81.748373
167,324.9,2010-04-01,2025-04-26,41.443,"MORELAND HILLS 0.6 W, OH US",0.123,GHCND:US1OHCY0013,METERS,-81.443
168,231.0,2010-09-15,2021-06-20,41.452247,"CLEVELAND 7.0 SW, OH US",0.1124,GHCND:US1OHCY0014,METERS,-81.814757
169,335.3,2010-07-22,2024-10-26,41.367664,"PARMA 1.8 SE, OH US",1.0,GHCND:US1OHCY0016,METERS,-81.701823
170,276.1,2014-05-15,2022-11-12,41.47421,"SHAKER HEIGHTS 1.3 E, OH US",0.4204,GHCND:US1OHCY0019,METERS,-81.52303
171,246.3,2011-11-30,2022-06-04,41.290945,"BRECKSVILLE 1.7 SE, OH US",0.5685,GHCND:US1OHCY0021,METERS,-81.594754
172,279.8,2012-02-01,2015-12-29,41.555168,"MAYFIELD 0.2 NW, OH US",0.6303,GHCND:US1OHCY0023,METERS,-81.43863
173,254.8,2012-08-10,2025-12-09,41.408813,"PARMA 1.9 NNW, OH US",1.0,GHCND:US1OHCY0024,METERS,-81.744789
174,272.2,2012-08-23,2017-06-21,41.4179458618164,"MAPLE HEIGHTS 0.9 NW, OH US",0.8861,GHCND:US1OHCY0027,METERS,-81.5741119384766
175,325.8,2013-04-08,2020-08-06,41.491486,"PEPPER PIKE 1.0 NNE, OH US",0.0926,GHCND:US1OHCY0028,METERS,-81.450599
176,303.3,2015-01-05,2016-04-02,41.50073,"UNIVERSITY HEIGHTS 1.0 WNW, OH US",0.7225,GHCND:US1OHCY0034,METERS,-81.552556
177,274.9,2015-06-14,2018-11-05,41.4217338562012,"GARFIELD HEIGHTS 0.6 ENE, OH US",0.3433,GHCND:US1OHCY0036,METERS,-81.5925521850586
178,242.3,2016-01-02,2024-06-06,41.374201,"BEREA 1.1 ENE, OH US",0.1569,GHCND:US1OHCY0038,METERS,-81.842516
179,217.9,2016-03-09,2024-09-20,41.447954,"WESTLAKE 0.5 SSW, OH US",0.9759,GHCND:US1OHCY0039,METERS,-81.932602
180,225.2,2016-07-17,2025-12-09,41.466669,"LAKEWOOD 1.3 SSW, OH US",0.7533,GHCND:US1OHCY0041,METERS,-81.811167
181,302.7,2017-04-20,2025-12-08,41.29815,"STRONGSVILLE 1.3 SE, OH US",0.9423,GHCND:US1OHCY0042,METERS,-81.81507
182,323.1,2017-10-22,2020-04-10,41.5227,"LYNDHURST 0.8 NE, OH US",0.1508,GHCND:US1OHCY0043,METERS,-81.47958
183,237.7,2017-10-16,2019-11-08,41.39234,"BROOK PARK 0.7 SW, OH US",0.5411,GHCND:US1OHCY0044,METERS,-81.83457
184,182.3,2018-05-22,2025-11-27,41.57964,"CLEVELAND 9.2 NE, OH US",0.522,GHCND:US1OHCY0047,METERS,-81.55116
185,316.1,2018-06-18,2025-12-09,41.44729,"HIGHLAND HILLS 0.8 W, OH US",0.9927,GHCND:US1OHCY0048,METERS,-81.53368
186,307.2,2019-07-11,2025-11-08,41.481768,"CHAGRIN FALLS 3.9 NNW, OH US",0.6157,GHCND:US1OHCY0052,METERS,-81.422176
187,237.1,2020-03-08,2025-11-28,41.382139,"BEREA 1.1 NW, OH US",0.9603,GHCND:US1OHCY0053,METERS,-81.875795
188,280.7,2020-07-01,2023-08-29,41.388117,"SEVEN HILLS 0.6 NNE, OH US",0.9403,GHCND:US1OHCY0054,METERS,-81.670986
189,295.0,2020-11-30,2025-12-07,41.523588,"SOUTH EUCLID 0.2 ESE, OH US",0.524,GHCND:US1OHCY0058,METERS,-81.521918
190,289.9,2021-02-15,2022-03-27,41.4746413589614,"SHAKER HEIGHTS 1.5 W, OH US",0.8645,GHCND:US1OHCY0062,METERS,-81.576927403011
191,223.7,2021-05-17,2023-08-24,41.450756,"ROCKY RIVER 1.6 SSW, OH US",0.5699,GHCND:US1OHCY0064,METERS,-81.863544
192,193.9,2022-07-17,2025-11-10,41.48523,"BAY VILLAGE 0.7 ESE, OH US",0.629,GHCND:US1OHCY0067,METERS,-81.91716
193,193.9,2023-04-03,2025-12-09,41.48973,"LAKEWOOD 0.7 NW, OH US",0.7627,GHCND:US1OHCY0073,METERS,-81.81326
194,189.9,2023-07-28,2025-11-10,41.616597,"EUCLID 2.2 NE, OH US",0.6822,GHCND:US1OHCY0075,METERS,-81.493063
195,212.1,2009-02-19,2017-12-23,41.281169,"DEFIANCE 0.9 E, OH US",0.9752,GHCND:US1OHDF0001,METERS,-84.345375
196,217.3,2013-06-24,2025-11-06,41.383589,"DEFIANCE 9.4 NE, OH US",0.636,GHCND:US1OHDF0006,METERS,-84.242301
197,211.8,2020-09-28,2021-10-16,41.28144,"DEFIANCE 0.5 E, OH US",0.9974,GHCND:US1OHDF0008,METERS,-84.35193
198,274.6,2009-03-20,2015-05-21,40.178973,"WESTERVILLE 4.0 N, OH US",0.4827,GHCND:US1OHDL0002,METERS,-82.925594
199,295.0,2009-03-31,2012-02-20,40.349177,"DELAWARE 3.7 NNW, OH US",0.3633,GHCND:US1OHDL0003,METERS,-83.10642
200,280.4,2013-05-10,2017-08-04,40.15471,"WESTERVILLE 2.3 N, OH US",0.104,GHCND:US1OHDL0007,METERS,-82.921452
201,294.1,2014-07-08,2018-08-06,40.16415,"DUBLIN 3.7 NNW, OH US",0.998,GHCND:US1OHDL0008,METERS,-83.168696
202,332.2,2002-02-01,2025-12-09,40.200143,"SUNBURY 5.7 ESE, OH US",0.4739,GHCND:US1OHDL0010,METERS,-82.773205
203,282.2,2015-03-22,2025-12-09,40.196727,"LEWIS CENTER 1.4 E, OH US",0.9717,GHCND:US1OHDL0012,METERS,-82.983531
204,290.2,2015-06-07,2025-12-03,40.2337074279785,"GALENA 3.0 WNW, OH US",0.8954,GHCND:US1OHDL0013,METERS,-82.9362335205078
205,286.8,2017-03-28,2018-05-22,40.237212,"GALENA 3.9 WNW, OH US",0.4822,GHCND:US1OHDL0017,METERS,-82.952871
206,289.6,2018-06-25,2025-12-06,40.17032,"WESTERVILLE 3.4 N, OH US",0.8979,GHCND:US1OHDL0022,METERS,-82.92209
207,280.1,2021-01-05,2025-12-08,40.17194444,"POWELL 0.9 NNW, OH US",0.9983,GHCND:US1OHDL0032,METERS,-83.07527778
208,331.9,2012-08-31,2022-11-12,40.318583,"SUNBURY 5.4 NNE, OH US",0.1065,GHCND:US1OHDL0033,METERS,-82.828473
209,340.8,2021-05-19,2025-12-08,40.126503,"NEW ALBANY 4.0 NE, OH US",0.9856,GHCND:US1OHDL0035,METERS,-82.762878
210,283.2,2021-06-07,2025-12-09,40.38126,"MAGNETIC SPRINGS 2.1 NNE, OH US",0.9745,GHCND:US1OHDL0036,METERS,-83.24833
211,289.6,2022-03-19,2025-12-08,40.28255,"SUNBURY 4.8 WNW, OH US",0.95,GHCND:US1OHDL0037,METERS,-82.942245
212,281.3,2023-03-01,2024-04-12,40.219083,"LEWIS CENTER 1.8 NW, OH US",0.2861,GHCND:US1OHDL0038,METERS,-83.03075
213,285.9,2022-08-04,2025-12-09,40.223769,"POWELL 5.3 NW, OH US",0.9493,GHCND:US1OHDL0039,METERS,-83.123589
214,287.7,2022-08-21,2023-12-14,40.1447066,"WESTERVILLE 1.7 NNE, OH US",0.3389,GHCND:US1OHDL0042,METERS,-82.9064527
215,278.6,2023-07-19,2025-11-26,40.40083,"RADNOR 2.8 WNW, OH US",0.8248,GHCND:US1OHDL0044,METERS,-83.197825
216,277.1,2024-03-29,2025-12-09,40.305274,"DELAWARE 0.7 NE, OH US",0.9614,GHCND:US1OHDL0047,METERS,-83.071115
217,303.9,2009-02-02,2025-12-09,40.15262,"BRADFORD 2.3 NW, OH US",1.0,GHCND:US1OHDR0001,METERS,-84.46127
218,304.8,2013-04-25,2025-12-09,40.2180595397949,"VERSAILLES 1.6 WSW, OH US",0.9755,GHCND:US1OHDR0007,METERS,-84.5138778686523
219,315.5,2013-04-26,2020-12-14,39.9463,"POTSDAM 2.6 WSW, OH US",0.9556,GHCND:US1OHDR0008,METERS,-84.4537
220,314.2,2013-06-01,2025-11-09,40.1670849,"GREENVILLE 4.5 N, OH US",0.7252,GHCND:US1OHDR0009,METERS,-84.6371484
221,307.8,2013-04-29,2025-12-02,40.096,"GREENVILLE 5.6 E, OH US",0.2919,GHCND:US1OHDR0011,METERS,-84.52
222,314.6,2013-04-29,2014-11-07,40.2992782592773,"ROSSBURG 1.6 NE, OH US",0.6864,GHCND:US1OHDR0012,METERS,-84.6207580566406
223,321.9,2014-05-12,2025-11-26,40.277741,"ROSSBURG 3.0 E, OH US",0.1738,GHCND:US1OHDR0013,METERS,-84.580482
224,317.6,2013-05-13,2025-12-09,40.2696418762207,"ROSSBURG 3.0 WSW, OH US",0.8605,GHCND:US1OHDR0016,METERS,-84.6928100585938
225,310.0,2013-05-14,2021-10-22,39.9935035705566,"PITSBURG 1.4 ENE, OH US",0.9685,GHCND:US1OHDR0017,METERS,-84.4629287719727
226,325.8,2013-05-17,2025-12-09,39.9493789672852,"ARCANUM 3.2 SSW, OH US",0.9486,GHCND:US1OHDR0018,METERS,-84.5795593261719
227,317.0,2013-06-12,2025-11-25,40.173805,"GREENVILLE 5.3 N, OH US",0.2969,GHCND:US1OHDR0019,METERS,-84.637075
228,334.1,2017-07-01,2021-06-04,39.989078,"ARCANUM 3.5 W, OH US",0.1589,GHCND:US1OHDR0023,METERS,-84.618955
229,335.3,2018-06-14,2020-04-09,39.980486,"NEW MADISON 1.0 NNE, OH US",0.2087,GHCND:US1OHDR0024,METERS,-84.698894
230,305.4,2018-10-29,2025-12-09,40.21836667,"VERSAILLES 1.6 WSW, OH US",0.8057,GHCND:US1OHDR0025,METERS,-84.5133
231,327.4,2019-04-05,2025-11-11,40.12493,"GREENVILLE 1.6 NNW, OH US",0.6171,GHCND:US1OHDR0026,METERS,-84.63102
232,309.7,2019-07-31,2025-12-09,40.02254,"ARCANUM 4.1 ENE, OH US",0.9759,GHCND:US1OHDR0029,METERS,-84.48868
233,310.6,2019-12-28,2025-12-09,40.0275,"ARCANUM 4.0 NE, OH US",0.966,GHCND:US1OHDR0031,METERS,-84.4936
234,309.4,2020-05-28,2022-11-28,40.30375,"YORKSHIRE 1.6 SSW, OH US",0.9563,GHCND:US1OHDR0033,METERS,-84.504444
235,310.9,2020-06-10,2025-08-01,40.20179,"ANSONIA 2.8 WSW, OH US",0.1575,GHCND:US1OHDR0034,METERS,-84.68559
236,315.8,2020-12-15,2025-12-09,39.961648,"PITSBURG 1.7 S, OH US",0.9742,GHCND:US1OHDR0035,METERS,-84.489417
237,336.5,2022-06-02,2025-10-19,39.9628867,"NEW MADISON 0.5 SW, OH US",0.1586,GHCND:US1OHDR0036,METERS,-84.713728
238,209.1,2009-02-08,2023-10-14,41.303651,"MILAN 3.2 ENE, OH US",0.3956,GHCND:US1OHER0002,METERS,-82.542911
239,221.0,2009-02-07,2010-07-24,41.2952,"BELLEVUE 1.9 NE, OH US",0.2308,GHCND:US1OHER0003,METERS,-82.8156
240,215.2,2010-05-21,2025-11-29,41.398775,"CASTALIA 0.9 ESE, OH US",0.3962,GHCND:US1OHER0004,METERS,-82.792459
241,244.4,2010-05-25,2025-12-09,41.31902389,"WAKEMAN 4.6 NNE, OH US",0.7989,GHCND:US1OHER0005,METERS,-82.37726793
242,183.8,2012-03-20,2025-10-31,41.41236,"VERMILION 3.1 W, OH US",0.307,GHCND:US1OHER0006,METERS,-82.377464
243,191.4,2012-01-21,2017-10-24,41.377262,"SANDUSKY 7.2 SE, OH US",0.5147,GHCND:US1OHER0007,METERS,-82.62429
244,184.4,2012-03-22,2025-12-09,41.422911,"CASTALIA 1.8 NNE, OH US",0.982,GHCND:US1OHER0008,METERS,-82.790466
245,190.2,2012-03-19,2022-07-07,41.401467,"SANDUSKY 3.8 SSW, OH US",0.4611,GHCND:US1OHER0010,METERS,-82.72902
246,237.7,2012-03-16,2025-12-05,41.32624,"BERLIN HEIGHTS 0.4 N, OH US",0.9866,GHCND:US1OHER0011,METERS,-82.49196
247,180.7,2012-03-23,2021-11-12,41.4262,"SANDUSKY 2.3 SSE, OH US",0.5608,GHCND:US1OHER0012,METERS,-82.6961
248,207.3,2012-04-04,2022-11-09,41.3579978942871,"SANDUSKY 6.8 S, OH US",0.633,GHCND:US1OHER0013,METERS,-82.7260513305664
249,19.5,2012-01-09,2025-01-28,41.2911491394043,"MILAN 0.4 ENE, OH US",0.9413,GHCND:US1OHER0014,METERS,-82.5934371948242
250,211.8,2012-03-13,2025-11-26,41.357532,"CASTALIA 3.1 SSE, OH US",0.2347,GHCND:US1OHER0015,METERS,-82.794869
251,177.4,2012-05-06,2013-07-27,41.4366226196289,"SANDUSKY 1.9 SE, OH US",0.2589,GHCND:US1OHER0016,METERS,-82.6876678466797
252,182.6,2012-03-20,2020-02-17,41.3936386108398,"HURON 0.2 SW, OH US",0.2203,GHCND:US1OHER0017,METERS,-82.5649795532227
253,186.5,2012-03-01,2025-12-09,41.362132,"HURON 2.5 SSW, OH US",0.9938,GHCND:US1OHER0018,METERS,-82.57453
254,179.5,2012-04-09,2014-06-30,41.4202737,"HURON 4.1 WNW, OH US",0.2435,GHCND:US1OHER0019,METERS,-82.6340532
255,213.7,2012-04-01,2025-11-14,41.28789,"MONROEVILLE 3.1 N, OH US",0.6523,GHCND:US1OHER0020,METERS,-82.691345
256,181.4,2012-04-21,2020-10-25,41.3794898986816,"HURON 2.0 SE, OH US",0.4839,GHCND:US1OHER0022,METERS,-82.5317230224609
257,199.9,2012-05-09,2025-11-09,41.2999229431152,"MILAN 1.2 NE, OH US",0.5972,GHCND:US1OHER0024,METERS,-82.583610534668
258,183.8,2013-04-05,2013-08-29,41.42635,"SANDUSKY 5.3 WSW, OH US",0.8368,GHCND:US1OHER0027,METERS,-82.809881
259,183.5,2013-04-24,2019-11-15,41.3797225803137,"HURON 3.1 ESE, OH US",0.2895,GHCND:US1OHER0029,METERS,-82.5070278346539
260,223.4,2015-08-18,2025-11-08,41.295162,"BELLEVUE 1.9 NE, OH US",0.3643,GHCND:US1OHER0041,METERS,-82.81562
261,189.3,2016-05-29,2016-11-19,41.60501,"KELLEYS ISLAND 0.7 WNW, OH US",0.8171,GHCND:US1OHER0042,METERS,-82.71889
262,182.3,2017-07-10,2025-11-24,41.428651,"SANDUSKY 2.1 SSE, OH US",0.1127,GHCND:US1OHER0043,METERS,-82.694812
263,199.3,2018-04-25,2025-11-10,41.309273,"MILAN 1.9 NE, OH US",0.4062,GHCND:US1OHER0044,METERS,-82.578014
264,216.7,2018-06-13,2022-04-03,41.30701,"MONROEVILLE 4.4 N, OH US",0.1812,GHCND:US1OHER0045,METERS,-82.70242
265,223.4,2021-03-18,2025-12-08,41.3603165,"VERMILION 6.1 SW, OH US",1.0,GHCND:US1OHER0048,METERS,-82.4126644
266,184.1,2021-05-14,2025-12-09,41.377528,"HURON 3.1 ESE, OH US",0.5757,GHCND:US1OHER0049,METERS,-82.508066
267,179.2,2023-08-31,2025-11-04,41.408257,"HURON 1.3 NW, OH US",0.6939,GHCND:US1OHER0050,METERS,-82.581059
268,184.1,2023-09-02,2025-11-10,41.39097,"SANDUSKY 5.0 SSE, OH US",0.3371,GHCND:US1OHER0051,METERS,-82.6726
269,184.1,2023-09-06,2024-02-22,41.4062347,"SANDUSKY 3.7 SSE, OH US",0.8412,GHCND:US1OHER0052,METERS,-82.687027
270,171.0,2023-09-12,2025-12-04,41.456224,"SANDUSKY 3.2 E, OH US",0.8675,GHCND:US1OHER0053,METERS,-82.653223
271,188.7,2023-09-18,2024-10-07,41.3969,"SANDUSKY 4.6 SSW, OH US",0.8446,GHCND:US1OHER0055,METERS,-82.755
272,178.9,2023-09-28,2025-11-11,41.39838,"VERMILION 5.7 W, OH US",0.7281,GHCND:US1OHER0056,METERS,-82.42716
273,175.9,2023-10-17,2024-11-22,41.4579197,"SANDUSKY 0.6 ENE, OH US",0.7047,GHCND:US1OHER0057,METERS,-82.702491
274,175.6,2023-10-12,2025-10-18,41.456072,"SANDUSKY 3.2 E, OH US",0.5122,GHCND:US1OHER0059,METERS,-82.653536
275,244.1,2009-02-12,2011-01-10,39.667976,"LANCASTER 4.2 SSE, OH US",0.8567,GHCND:US1OHFF0001,METERS,-82.563577
276,303.9,2009-12-31,2022-03-04,39.92629,"PICKERINGTON 2.7 NNE, OH US",0.6051,GHCND:US1OHFF0005,METERS,-82.7469
277,276.1,2012-03-31,2014-07-24,39.74990833,"LANCASTER 2.8 NE, OH US",0.4905,GHCND:US1OHFF0008,METERS,-82.56181111
278,281.6,2013-08-11,2016-12-17,39.884741,"BALTIMORE 3.3 NW, OH US",0.9282,GHCND:US1OHFF0009,METERS,-82.643082
279,256.6,2015-01-13,2015-07-08,39.8895,"PICKERINGTON 0.1 SSE, OH US",0.8757,GHCND:US1OHFF0010,METERS,-82.768
280,327.1,2018-11-07,2025-09-23,39.709361,"LANCASTER 7.2 W, OH US",0.9817,GHCND:US1OHFF0014,METERS,-82.732687
281,284.1,2019-10-21,2025-12-09,39.930319,"PICKERINGTON 2.8 N, OH US",0.5424,GHCND:US1OHFF0018,METERS,-82.774687
282,269.7,2020-07-01,2025-10-01,39.74148,"LANCASTER 1.6 NE, OH US",0.371,GHCND:US1OHFF0020,METERS,-82.582028
283,272.5,2020-07-23,2022-11-08,39.865491,"BALTIMORE 3.7 WNW, OH US",0.5387,GHCND:US1OHFF0023,METERS,-82.673056
284,239.0,2020-07-16,2025-12-09,39.859127,"CANAL WINCHESTER 1.7 ENE, OH US",0.9995,GHCND:US1OHFF0024,METERS,-82.793037
285,247.8,2020-07-20,2025-12-08,39.861897,"PICKERINGTON 2.1 SSE, OH US",0.8542,GHCND:US1OHFF0025,METERS,-82.755255
286,295.4,2020-07-26,2025-12-09,39.915025,"PICKERINGTON 3.5 ENE, OH US",0.948,GHCND:US1OHFF0026,METERS,-82.710331
287,263.7,2020-07-23,2022-03-31,39.8431,"CARROLL 3.0 N, OH US",0.2658,GHCND:US1OHFF0027,METERS,-82.7068
288,285.9,2020-08-01,2023-08-16,39.733657,"LANCASTER 5.7 E, OH US",0.459,GHCND:US1OHFF0028,METERS,-82.493151
289,274.9,2020-08-30,2025-12-09,39.92527,"PICKERINGTON 2.4 N, OH US",0.9881,GHCND:US1OHFF0029,METERS,-82.767385
290,286.8,2021-03-13,2025-12-09,39.80039,"PLEASANTVILLE 2.9 WSW, OH US",0.9134,GHCND:US1OHFF0030,METERS,-82.57698
291,267.0,2021-03-15,2025-11-17,39.92279,"PICKERINGTON 2.3 NNW, OH US",0.6167,GHCND:US1OHFF0031,METERS,-82.777831
292,281.6,2021-05-12,2021-11-18,39.752894,"LANCASTER 5.6 WNW, OH US",0.8639,GHCND:US1OHFF0032,METERS,-82.696556
293,269.1,2021-04-27,2023-11-09,39.801814,"LITHOPOLIS 0.5 WSW, OH US",0.4358,GHCND:US1OHFF0033,METERS,-82.818942
294,280.1,2021-05-07,2022-03-11,39.711588,"LANCASTER 5.5 E, OH US",0.4531,GHCND:US1OHFF0034,METERS,-82.495937
295,257.9,2021-05-07,2022-04-19,39.733872,"LANCASTER 1.1 NW, OH US",0.546,GHCND:US1OHFF0035,METERS,-82.612651
296,336.2,2021-05-09,2022-11-12,39.737325,"LANCASTER 8.2 W, OH US",0.5515,GHCND:US1OHFF0036,METERS,-82.751887
297,316.4,2021-05-14,2025-11-27,39.7593397,"LANCASTER 8.8 WNW, OH US",0.6631,GHCND:US1OHFF0037,METERS,-82.7575323
298,272.8,2021-06-24,2025-11-26,39.899283,"MILLERSPORT 1.4 E, OH US",0.6747,GHCND:US1OHFF0039,METERS,-82.516267
299,325.2,2019-06-03,2025-10-20,39.8325,"THORNVILLE 4.4 S, OH US",0.6093,GHCND:US1OHFF0040,METERS,-82.42889
300,254.8,2021-10-24,2022-09-04,39.715975,"LANCASTER 1.0 ESE, OH US",0.981,GHCND:US1OHFF0042,METERS,-82.581966
301,254.2,2022-03-19,2025-12-09,39.8104311,"CARROLL 1.9 WNW, OH US",0.9809,GHCND:US1OHFF0043,METERS,-82.7355318
302,315.2,2022-04-04,2025-11-24,39.7667069,"LANCASTER 3.1 N, OH US",0.4335,GHCND:US1OHFF0044,METERS,-82.6090159
303,278.3,2022-05-07,2025-11-13,39.917605,"THORNVILLE 3.4 WNW, OH US",0.2782,GHCND:US1OHFF0045,METERS,-82.476689
304,328.3,2022-04-26,2025-11-27,39.575357,"AMANDA 5.3 SSW, OH US",0.5617,GHCND:US1OHFF0046,METERS,-82.767447
305,278.3,2022-04-27,2025-11-10,39.8762321,"BALTIMORE 2.3 NNE, OH US",0.6492,GHCND:US1OHFF0047,METERS,-82.5873341
306,326.4,2022-11-11,2025-11-26,39.649454,"AMANDA 3.4 W, OH US",0.2374,GHCND:US1OHFF0049,METERS,-82.80653
307,326.1,2023-08-22,2025-11-09,39.7388,"LANCASTER 7.2 W, OH US",0.4069,GHCND:US1OHFF0055,METERS,-82.7334
308,295.0,2024-08-13,2025-12-09,39.7333333333,"BREMEN 1.9 N, OH US",0.8471,GHCND:US1OHFF0056,METERS,-82.4291666667
309,234.1,2011-04-02,2013-12-25,41.551501,"WAUSEON 0.2 SE, OH US",0.9249,GHCND:US1OHFL0002,METERS,-84.138747
310,208.5,2014-10-13,2015-06-12,41.521185,"DELTA 4.2 SSE, OH US",0.4486,GHCND:US1OHFL0006,METERS,-83.96381
311,220.4,2015-05-28,2025-11-26,41.62249,"FAYETTE 4.3 ESE, OH US",0.292,GHCND:US1OHFL0009,METERS,-84.24973
312,228.3,2018-01-31,2025-11-28,41.528128,"WAUSEON 1.8 S, OH US",0.22,GHCND:US1OHFL0012,METERS,-84.143807
313,207.0,2019-06-24,2025-12-09,41.527215,"SWANTON 4.0 S, OH US",0.9788,GHCND:US1OHFL0013,METERS,-83.906657
314,206.0,2020-05-14,2021-12-31,41.565223,"SWANTON 1.3 SSW, OH US",0.9866,GHCND:US1OHFL0015,METERS,-83.899695
315,218.5,2020-05-10,2025-12-08,41.567792,"ARCHBOLD 4.7 NW, OH US",1.0,GHCND:US1OHFL0016,METERS,-84.361074
316,233.5,2020-07-11,2022-09-12,41.529006,"WAUSEON 2.4 SW, OH US",0.1474,GHCND:US1OHFL0017,METERS,-84.173812
317,256.0,2009-01-01,2015-06-30,40.027882,"UPPER ARLINGTON 0.9 E, OH US",0.9473,GHCND:US1OHFR0001,METERS,-83.054333
318,273.1,2009-01-21,2025-12-09,40.1299,"DUBLIN 3.2 ENE, OH US",0.9836,GHCND:US1OHFR0002,METERS,-83.0742
319,234.1,2009-02-01,2025-12-07,39.980958,"GRANDVIEW HEIGHTS 0.1 N, OH US",0.9994,GHCND:US1OHFR0003,METERS,-83.040056
320,247.5,2009-06-01,2009-12-27,40.011192,"UPPER ARLINGTON 1.3 SSW, OH US",0.6952,GHCND:US1OHFR0007,METERS,-83.083161
321,314.6,2009-03-29,2025-12-08,40.04029,"NEW ALBANY 2.8 SSE, OH US",1.0,GHCND:US1OHFR0008,METERS,-82.798033
322,270.1,2009-04-13,2020-12-24,40.12261,"WESTERVILLE 0.2 WNW, OH US",0.4581,GHCND:US1OHFR0010,METERS,-82.92132
323,267.9,2009-04-27,2010-08-05,40.0604,"UPPER ARLINGTON 2.4 NNW, OH US",0.5193,GHCND:US1OHFR0012,METERS,-83.0815
324,271.9,2009-12-12,2011-01-21,40.092263,"DUBLIN 3.7 ESE, OH US",0.2783,GHCND:US1OHFR0016,METERS,-83.072494
325,229.2,2010-04-04,2011-06-05,39.997665,"COLUMBUS 2.4 WNW, OH US",0.7453,GHCND:US1OHFR0018,METERS,-83.03227
326,253.9,2010-06-13,2012-08-10,40.028731,"COLUMBUS 3.5 NE, OH US",0.4063,GHCND:US1OHFR0020,METERS,-82.94766
327,237.7,2010-09-04,2013-11-11,39.9930678,"MARBLE CLIFF 1.1 WNW, OH US",0.9082,GHCND:US1OHFR0021,METERS,-83.0786431
328,282.2,2010-10-17,2017-06-26,39.95613,"GALLOWAY 3.1 N, OH US",0.8969,GHCND:US1OHFR0022,METERS,-83.15918
329,290.2,2011-01-13,2025-11-09,39.837836,"HARRISBURG 3.7 WNW, OH US",0.5642,GHCND:US1OHFR0023,METERS,-83.2321
330,,2011-03-19,2014-08-18,40.092491,"COLUMBUS 9.3 NNE, OH US",0.968,GHCND:US1OHFR0024,,-82.958236
331,235.0,2011-03-12,2011-06-25,39.980412,"COLUMBUS 2.8 WSW, OH US",0.9717,GHCND:US1OHFR0025,METERS,-83.039689
332,287.7,2012-07-07,2022-08-21,40.03444,"HILLIARD 1.8 W, OH US",0.3821,GHCND:US1OHFR0030,METERS,-83.17678
333,247.5,2013-04-28,2025-04-11,40.019149,"COLUMBUS 3.6 NW, OH US",0.5718,GHCND:US1OHFR0034,METERS,-83.04369
334,265.8,2013-08-11,2016-04-01,39.95881,"REYNOLDSBURG 1.6 W, OH US",0.3544,GHCND:US1OHFR0037,METERS,-82.829361
335,246.9,2014-04-26,2015-12-21,40.014254,"COLUMBUS 3.4 WNW, OH US",0.1901,GHCND:US1OHFR0039,METERS,-83.043385
336,301.1,2016-04-11,2020-04-18,40.041505,"GAHANNA 2.9 ENE, OH US",0.3982,GHCND:US1OHFR0045,METERS,-82.824711
337,291.1,2016-06-01,2025-12-07,40.063869,"COLUMBUS 8.2 NE, OH US",0.9005,GHCND:US1OHFR0046,METERS,-82.867308
338,232.3,2016-08-28,2016-12-05,39.994647,"COLUMBUS 1.4 WNW, OH US",1.0,GHCND:US1OHFR0048,METERS,-83.013145
339,244.1,2017-07-01,2025-12-08,40.021001,"COLUMBUS 3.7 NW, OH US",0.8261,GHCND:US1OHFR0051,METERS,-83.042667
340,257.9,2017-02-01,2018-10-29,40.030808,"COLUMBUS 7.5 NW, OH US",0.1981,GHCND:US1OHFR0052,METERS,-83.107094
341,267.3,2012-06-22,2025-12-08,40.046323,"COLUMBUS 5.4 NW, OH US",0.3874,GHCND:US1OHFR0058,METERS,-83.05594
342,283.8,2017-07-18,2025-12-05,39.975979,"NEW ROME 2.2 NW, OH US",0.9461,GHCND:US1OHFR0059,METERS,-83.16671
343,264.0,2018-05-07,2025-12-09,40.059612,"COLUMBUS 5.0 NNW, OH US",0.9315,GHCND:US1OHFR0075,METERS,-83.009931
344,281.3,2018-07-02,2020-08-24,40.045163,"HILLIARD 0.7 NW, OH US",0.6484,GHCND:US1OHFR0081,METERS,-83.150931
345,273.4,2018-08-24,2025-11-29,40.13056183,"WESTERVILLE 0.7 N, OH US",0.9461,GHCND:US1OHFR0083,METERS,-82.91999817
346,231.3,2018-09-17,2024-07-18,40.09756,"WORTHINGTON 0.7 W, OH US",0.8119,GHCND:US1OHFR0084,METERS,-83.03331
347,271.9,2018-09-22,2023-05-14,40.068258,"DUBLIN 3.5 S, OH US",0.0967,GHCND:US1OHFR0085,METERS,-83.137898
348,297.5,2019-03-04,2022-07-25,40.09415,"WESTERVILLE 4.3 ESE, OH US",0.9903,GHCND:US1OHFR0087,METERS,-82.84499
349,262.7,2019-06-25,2020-11-29,40.03568,"COLUMBUS 3.3 NNW, OH US",0.5802,GHCND:US1OHFR0091,METERS,-83.00339
350,275.2,2019-05-28,2020-12-11,40.121982,"DUBLIN 0.7 WNW, OH US",0.2961,GHCND:US1OHFR0094,METERS,-83.144714
351,258.2,2019-07-11,2021-06-10,40.01793,"COLUMBUS 4.9 WNW, OH US",0.2126,GHCND:US1OHFR0096,METERS,-83.07166
352,306.6,2019-07-27,2021-04-10,39.99515,"BLACKLICK 1.2 E, OH US",0.5513,GHCND:US1OHFR0097,METERS,-82.78882
353,306.0,2020-05-01,2020-11-29,40.008167,"BLACKLICK 1.2 NE, OH US",0.9953,GHCND:US1OHFR0099,METERS,-82.795884
354,243.5,2020-05-22,2025-08-15,39.98410833,"GRANDVIEW HEIGHTS 0.5 NW, OH US",0.1579,GHCND:US1OHFR0101,METERS,-83.04694444
355,236.2,2021-06-06,2025-10-06,39.94877,"COLUMBUS 4.3 SE, OH US",0.8542,GHCND:US1OHFR0104,METERS,-82.924206
356,268.5,2020-09-29,2021-09-20,40.0668328,"COLUMBUS 6.7 NW, OH US",0.8067,GHCND:US1OHFR0106,METERS,-83.0640325
357,239.0,2020-11-08,2025-12-09,39.84789,"GROVE CITY 1.9 SSE, OH US",0.9682,GHCND:US1OHFR0111,METERS,-83.060825
358,228.0,2021-01-01,2023-09-05,39.990216732153,"COLUMBUS 1.5 W, OH US",0.364,GHCND:US1OHFR0112,METERS,-83.0160463863458
359,255.1,2021-03-10,2024-03-15,39.9309,"COLUMBUS 7.2 WSW, OH US",0.5726,GHCND:US1OHFR0120,METERS,-83.1012
360,256.0,2021-03-21,2025-09-23,40.12025,"WORTHINGTON 1.8 NNW, OH US",0.2725,GHCND:US1OHFR0121,METERS,-83.037904
361,272.2,2021-03-26,2022-09-22,39.986564,"COLUMBUS 7.7 E, OH US",0.9597,GHCND:US1OHFR0123,METERS,-82.841687
362,226.5,2021-03-18,2023-10-06,39.982435,"COLUMBUS 1.3 WSW, OH US",0.1726,GHCND:US1OHFR0126,METERS,-83.010055
363,246.9,2020-08-01,2025-11-24,39.97876,"BEXLEY 1.0 N, OH US",0.7714,GHCND:US1OHFR0127,METERS,-82.935464
364,244.1,2021-06-07,2025-12-07,39.968041,"COLUMBUS 3.7 ESE, OH US",0.9453,GHCND:US1OHFR0129,METERS,-82.923234
365,,2021-06-10,2025-12-02,40.11067,"WESTERVILLE 3.0 ESE, OH US",0.5791,GHCND:US1OHFR0131,,-82.8622
366,278.3,2022-03-29,2025-02-28,40.107465,"DUBLIN 1.3 SW, OH US",0.4794,GHCND:US1OHFR0138,METERS,-83.153549
367,266.4,2022-03-19,2025-05-21,40.040806,"GAHANNA 1.2 NNE, OH US",0.1371,GHCND:US1OHFR0139,METERS,-82.867973
368,232.6,2022-04-07,2023-08-05,39.962337,"COLUMBUS 2.6 SE, OH US",0.4588,GHCND:US1OHFR0140,METERS,-82.953983
369,224.6,2022-05-15,2025-10-23,39.863,"GROVEPORT 0.1 NNW, OH US",0.3418,GHCND:US1OHFR0143,METERS,-82.8985
370,225.2,2022-06-30,2024-06-14,39.983813,"COLUMBUS 1.7 WSW, OH US",0.5992,GHCND:US1OHFR0144,METERS,-83.019502
371,251.2,2023-03-24,2025-11-29,40.087632,"WORTHINGTON 0.7 S, OH US",0.5906,GHCND:US1OHFR0149,METERS,-83.022618
372,229.2,2022-12-06,2025-12-09,39.97724,"COLUMBUS 1.4 SW, OH US",0.7382,GHCND:US1OHFR0150,METERS,-83.00998
373,278.6,2023-04-09,2025-05-17,40.01929,"COLUMBUS 5.3 WNW, OH US",0.9299,GHCND:US1OHFR0155,METERS,-83.07956
374,283.8,2023-04-10,2025-12-09,40.01765,"HILLIARD 2.4 SW, OH US",0.8892,GHCND:US1OHFR0158,METERS,-83.18027
375,264.9,2023-05-13,2025-12-09,40.0847,"WORTHINGTON 1.3 SW, OH US",0.9236,GHCND:US1OHFR0159,METERS,-83.0381
376,278.3,2023-06-01,2025-12-09,39.915214,"GALLOWAY 4.3 W, OH US",1.0,GHCND:US1OHFR0160,METERS,-83.243141
377,267.6,2024-03-19,2025-06-10,40.1144404,"WESTERVILLE 0.5 S, OH US",0.6058,GHCND:US1OHFR0166,METERS,-82.9193451
378,271.9,2024-07-13,2025-12-09,40.124211,"DUBLIN 3.4 E, OH US",0.8913,GHCND:US1OHFR0172,METERS,-83.069138
379,314.2,2011-02-28,2013-11-16,39.5348,"WASHINGTON 3.4 W, OH US",0.6576,GHCND:US1OHFY0003,METERS,-83.4942
380,282.5,2015-03-30,2025-12-09,39.510123,"WASHINGTON 3.9 ESE, OH US",0.9081,GHCND:US1OHFY0005,METERS,-83.366983
381,318.5,2020-03-08,2023-10-05,39.6509,"JEFFERSONVILLE 0.1 SSE, OH US",0.8967,GHCND:US1OHFY0007,METERS,-83.55628
382,291.7,2020-04-23,2025-12-09,39.53278,"WASHINGTON COURT HOUSE 0.6 ESE, OH US",0.9898,GHCND:US1OHFY0008,METERS,-83.4272
383,297.8,2022-08-04,2024-12-19,39.5415322,"WASHINGTON COURT HOUSE 0.3 N, OH US",0.87,GHCND:US1OHFY0010,METERS,-83.4370833
384,329.2,2009-02-17,2017-05-26,41.432322,"SOUTH RUSSELL 2.0 W, OH US",0.7564,GHCND:US1OHGG0003,METERS,-81.371598
385,377.3,2009-03-01,2025-12-07,41.5903,"MONTVILLE 1.2 SSE, OH US",0.9982,GHCND:US1OHGG0004,METERS,-81.048
386,35.7,2012-06-11,2025-12-09,41.464377264447,"MIDDLEFIELD 0.6 NE, OH US",0.9951,GHCND:US1OHGG0007,METERS,-81.0652023553848
387,333.8,2016-01-21,2017-04-08,41.43242,"SOUTH RUSSELL 2.0 W, OH US",0.4887,GHCND:US1OHGG0009,METERS,-81.371114
388,306.0,2017-09-12,2025-12-07,41.7123829,"MADISON 4.2 S, OH US",0.8827,GHCND:US1OHGG0011,METERS,-81.038718
389,365.5,2019-01-01,2025-11-09,41.421765,"CHAGRIN FALLS 3.3 ESE, OH US",0.388,GHCND:US1OHGG0014,METERS,-81.327385
390,353.9,2018-06-24,2019-10-30,41.5537204,"CHESTERLAND 2.3 NNW, OH US",0.583,GHCND:US1OHGG0015,METERS,-81.3653532
391,386.5,2018-09-07,2021-10-29,41.507767,"CHARDON 5.1 SSE, OH US",0.3211,GHCND:US1OHGG0016,METERS,-81.183044
392,369.1,2019-03-29,2020-05-19,41.413522,"CHAGRIN FALLS 5.2 ESE, OH US",0.5766,GHCND:US1OHGG0017,METERS,-81.292553
393,342.6,2022-09-20,2025-11-26,41.3511999,"GARRETTSVILLE 4.8 NNW, OH US",0.2775,GHCND:US1OHGG0020,METERS,-81.1149747
394,348.4,2023-03-11,2025-12-09,41.362669,"AUBURN CORNERS 3.0 WSW, OH US",0.9861,GHCND:US1OHGG0021,METERS,-81.269876
395,197.8,2010-06-27,2014-05-28,38.88365,"THURMAN 2.2 ESE, OH US",0.1194,GHCND:US1OHGL0002,METERS,-82.40995
396,174.3,2021-05-07,2025-11-26,38.84342,"GALLIPOLIS 2.9 NW, OH US",0.1856,GHCND:US1OHGL0006,METERS,-82.23619
397,241.4,2009-04-01,2009-12-09,39.642922,"BELLBROOK 2.4 E, OH US",0.8103,GHCND:US1OHGR0002,METERS,-84.040435
398,284.4,2010-04-30,2010-10-14,39.677983,"XENIA 1.3 WSW, OH US",0.9762,GHCND:US1OHGR0003,METERS,-83.963483
399,279.8,2011-01-01,2019-01-13,39.6646069,"XENIA 2.1 SW, OH US",0.5612,GHCND:US1OHGR0006,METERS,-83.970709
400,265.5,2012-09-07,2013-12-06,39.633283,"BELLBROOK 1.1 WSW, OH US",0.2763,GHCND:US1OHGR0009,METERS,-84.104754
401,256.3,2013-07-13,2013-12-22,39.8094749450684,"FAIRBORN 0.4 NNE, OH US",0.6442,GHCND:US1OHGR0010,METERS,-84.0141677856445
402,324.6,2015-04-14,2025-12-02,39.72026,"CEDARVILLE 3.6 ESE, OH US",0.4146,GHCND:US1OHGR0011,METERS,-83.750049
403,271.6,2015-06-21,2017-12-23,39.805742,"FAIRBORN 0.1 NNW, OH US",0.1439,GHCND:US1OHGR0012,METERS,-84.01819
404,278.3,2016-08-14,2025-12-09,39.711723,"XENIA 2.1 NNE, OH US",0.8473,GHCND:US1OHGR0013,METERS,-83.923512
405,291.1,2016-08-27,2025-04-06,39.767539,"BEAVERCREEK 3.2 NE, OH US",0.1291,GHCND:US1OHGR0014,METERS,-84.027186
406,289.3,2017-05-01,2025-12-08,39.73534,"BEAVERCREEK 1.5 ENE, OH US",0.9046,GHCND:US1OHGR0015,METERS,-84.03552
407,266.4,2017-04-08,2025-10-20,39.827063,"FAIRBORN 2.1 NE, OH US",0.1684,GHCND:US1OHGR0016,METERS,-83.990636
408,277.4,2017-07-08,2018-04-16,39.7745,"FAIRBORN 2.5 SE, OH US",0.9505,GHCND:US1OHGR0017,METERS,-83.99116667
409,289.0,2017-12-06,2019-04-07,39.656735,"BELLBROOK 1.2 NNE, OH US",0.7766,GHCND:US1OHGR0018,METERS,-84.07837
410,316.7,2016-07-01,2025-12-09,39.813315,"YELLOW SPRINGS 2.5 ENE, OH US",0.6863,GHCND:US1OHGR0019,METERS,-83.851127
411,295.7,2019-08-26,2025-12-07,39.748577,"BEAVERCREEK 2.0 NE, OH US",0.8959,GHCND:US1OHGR0020,METERS,-84.034064
412,289.0,2018-03-07,2021-05-27,39.632382,"BELLBROOK 1.3 WSW, OH US",0.1995,GHCND:US1OHGR0021,METERS,-84.108195
413,311.8,2015-11-26,2021-08-30,39.66835,"XENIA 4.6 ESE, OH US",0.3026,GHCND:US1OHGR0022,METERS,-83.85665
414,333.8,2020-07-31,2025-06-23,39.635903,"JAMESTOWN 2.9 ESE, OH US",0.0749,GHCND:US1OHGR0024,METERS,-83.694569
415,278.6,2015-06-01,2025-12-09,39.6595,"XENIA 2.8 SW, OH US",0.6385,GHCND:US1OHGR0026,METERS,-83.9805
416,282.5,2020-02-20,2025-12-08,39.69805,"BEAVERCREEK 2.3 SSE, OH US",0.3657,GHCND:US1OHGR0028,METERS,-84.048587
417,285.6,2020-05-28,2020-12-10,39.78453,"FAIRBORN 1.4 S, OH US",0.6904,GHCND:US1OHGR0034,METERS,-84.01984
418,266.7,2020-10-06,2025-12-09,39.78098,"FAIRBORN 2.0 SW, OH US",0.9979,GHCND:US1OHGR0037,METERS,-84.03863
419,295.4,2021-03-17,2023-09-13,39.75351,"BEAVERCREEK 1.8 NNE, OH US",0.2711,GHCND:US1OHGR0039,METERS,-84.0501
420,261.2,2021-01-16,2025-12-09,39.717126,"BEAVERCREEK 1.1 SW, OH US",0.5729,GHCND:US1OHGR0041,METERS,-84.07445
421,259.4,2022-04-11,2023-07-20,39.6384912,"BELLBROOK 0.4 ESE, OH US",0.5794,GHCND:US1OHGR0042,METERS,-84.0789016
422,288.6,2023-04-20,2023-11-09,39.6408,"BELLBROOK 0.9 W, OH US",0.6029,GHCND:US1OHGR0043,METERS,-84.1028
423,305.1,2023-03-12,2025-12-09,39.76373,"BEAVERCREEK 2.5 NNW, OH US",0.9691,GHCND:US1OHGR0044,METERS,-84.07422
424,261.5,2023-05-13,2025-12-09,39.7205,"BEAVERCREEK 0.9 SW, OH US",0.9236,GHCND:US1OHGR0045,METERS,-84.0744
425,285.0,2024-07-19,2025-11-09,39.705972,"BEAVERCREEK 1.8 SSW, OH US",0.5741,GHCND:US1OHGR0047,METERS,-84.075906
426,243.5,2009-06-09,2011-06-20,40.013404,"CAMBRIDGE 1.6 ESE, OH US",0.3679,GHCND:US1OHGY0002,METERS,-81.56103
427,263.3,2017-04-21,2019-03-17,40.148353,"KIMBOLTON 3.5 W, OH US",0.7026,GHCND:US1OHGY0004,METERS,-81.64071
428,257.9,2021-03-10,2025-10-30,40.043493,"CAMBRIDGE 1.3 N, OH US",0.5012,GHCND:US1OHGY0008,METERS,-81.583593
429,317.0,2021-07-09,2025-10-06,40.060285,"CAMBRIDGE 3.2 NE, OH US",0.7937,GHCND:US1OHGY0010,METERS,-81.5467745
430,243.8,2024-04-12,2025-01-08,40.019364,"CAMBRIDGE 0.4 S, OH US",0.9559,GHCND:US1OHGY0012,METERS,-81.588331
431,265.8,2023-09-29,2025-12-07,40.0294657,"CAMBRIDGE 1.8 E, OH US",0.8377,GHCND:US1OHGY0014,METERS,-81.5536963
432,306.9,2023-12-09,2025-12-09,40.031,"CAMBRIDGE 1.0 ENE, OH US",0.6762,GHCND:US1OHGY0015,METERS,-81.5706
433,245.1,2009-03-07,2025-11-30,40.943309,"FINDLAY 7.2 SSW, OH US",0.5089,GHCND:US1OHHC0002,METERS,-83.669952
434,245.4,2011-05-12,2015-04-21,41.052138,"FINDLAY 3.4 E, OH US",0.9688,GHCND:US1OHHC0006,METERS,-83.577309
435,268.5,2013-06-17,2025-12-09,40.8816,"JENERA 1.6 SE, OH US",0.9197,GHCND:US1OHHC0010,METERS,-83.709
436,263.7,2014-04-10,2021-10-29,40.889233,"ARLINGTON 0.4 SW, OH US",0.687,GHCND:US1OHHC0011,METERS,-83.660277
437,237.1,2017-06-29,2025-12-08,41.0401,"FINDLAY 0.4 WSW, OH US",0.9767,GHCND:US1OHHC0012,METERS,-83.64919
438,248.7,2018-04-01,2019-01-07,40.95827,"RAWSON 1.1 E, OH US",0.8546,GHCND:US1OHHC0013,METERS,-83.76541
439,239.9,2020-12-28,2024-08-11,41.027373,"FINDLAY 1.1 SSW, OH US",0.1292,GHCND:US1OHHC0015,METERS,-83.648276
440,264.9,2021-10-31,2025-11-09,40.885219,"ARLINGTON 0.6 SW, OH US",0.4691,GHCND:US1OHHC0019,METERS,-83.661223
441,239.0,2023-10-20,2025-12-09,41.031159,"FINDLAY 1.0 SSW, OH US",0.8824,GHCND:US1OHHC0021,METERS,-83.651462
442,242.3,2024-04-05,2025-12-03,41.1214782,"ARCADIA 0.7 NNW, OH US",0.7993,GHCND:US1OHHC0022,METERS,-83.5160143
443,290.2,2014-04-12,2014-10-13,40.73228,"KENTON 6.3 NNW, OH US",0.8649,GHCND:US1OHHD0005,METERS,-83.64383
444,287.4,2014-04-17,2016-07-28,40.689452,"KENTON 4.5 NE, OH US",0.1403,GHCND:US1OHHD0006,METERS,-83.54724
445,293.8,2014-04-29,2015-09-30,40.647952,"KENTON 1.0 WNW, OH US",0.3365,GHCND:US1OHHD0008,METERS,-83.629669
446,289.0,2014-05-01,2014-11-13,40.59944444,"LA RUE 3.6 WNW, OH US",0.9289,GHCND:US1OHHD0010,METERS,-83.44583333
447,283.2,2014-05-02,2019-04-30,40.70194444,"KENTON 6.9 NE, OH US",0.7885,GHCND:US1OHHD0011,METERS,-83.50277778
448,293.2,2014-05-18,2025-12-08,40.81305556,"ADA 5.4 NE, OH US",0.9879,GHCND:US1OHHD0014,METERS,-83.73833333
449,307.5,2014-05-07,2014-11-08,40.656497,"KENTON 0.9 NNE, OH US",0.8817,GHCND:US1OHHD0015,METERS,-83.6053384
450,287.4,2014-06-12,2019-01-15,40.65534,"KENTON 8.0 E, OH US",0.6057,GHCND:US1OHHD0017,METERS,-83.458622
451,307.8,2014-12-11,2020-10-10,40.6473,"KENTON 1.7 E, OH US",0.5669,GHCND:US1OHHD0018,METERS,-83.5779
452,335.0,2015-04-04,2025-11-26,40.52166667,"BELLE CENTER 3.5 ENE, OH US",0.7213,GHCND:US1OHHD0019,METERS,-83.68
453,297.5,2017-04-09,2024-10-15,40.693317,"MCGUFFEY 0.2 W, OH US",0.6618,GHCND:US1OHHD0022,METERS,-83.790268
454,287.1,2016-08-18,2025-11-26,40.6721,"KENTON 6.6 ENE, OH US",0.4112,GHCND:US1OHHD0023,METERS,-83.4908
455,287.1,2019-05-16,2022-08-06,40.658878,"KENTON 8.0 E, OH US",0.1628,GHCND:US1OHHD0024,METERS,-83.459855
456,304.5,2020-01-16,2023-08-24,40.659895,"KENTON 1.1 N, OH US",0.1276,GHCND:US1OHHD0025,METERS,-83.607029
457,293.8,2020-05-20,2021-02-09,40.76388,"ADA 0.4 SSW, OH US",0.9699,GHCND:US1OHHD0026,METERS,-83.8263
458,306.3,2012-04-01,2018-06-26,39.1781385987997,"LYNCHBURG 6.1 SW, OH US",0.8854,GHCND:US1OHHG0002,METERS,-83.8643918931484
459,334.4,2013-08-15,2021-06-08,39.1982853412628,"HILLSBORO 0.8 SSW, OH US",0.351,GHCND:US1OHHG0003,METERS,-83.617894873023
460,342.0,2020-01-08,2023-06-13,39.12766,"HILLSBORO 5.7 S, OH US",0.5626,GHCND:US1OHHG0005,METERS,-83.59733
461,292.9,2021-08-21,2025-12-09,39.20299,"BAINBRIDGE 5.7 WSW, OH US",0.9917,GHCND:US1OHHG0008,METERS,-83.37271
462,286.5,2023-04-10,2025-12-07,39.3114944,"GREENFIELD 3.6 SW, OH US",0.9291,GHCND:US1OHHG0012,METERS,-83.4267269
463,323.1,2013-03-09,2025-12-09,39.51305556,"ROCKBRIDGE 4.7 SSW, OH US",0.6733,GHCND:US1OHHK0003,METERS,-82.54222222
464,297.8,2016-10-20,2025-11-30,39.6511383056641,"SUGAR GROVE 4.5 ENE, OH US",0.641,GHCND:US1OHHK0004,METERS,-82.4694366455078
465,320.0,2020-04-21,2021-12-07,39.584929,"ROCKBRIDGE 1.5 WNW, OH US",0.693,GHCND:US1OHHK0005,METERS,-82.548848
466,327.1,2020-07-07,2021-01-04,39.56135,"AMANDA 7.0 SSE, OH US",0.6978,GHCND:US1OHHK0006,METERS,-82.6812
467,216.1,2020-10-06,2022-07-06,39.4495,"LAURELVILLE 4.3 ESE, OH US",0.6119,GHCND:US1OHHK0007,METERS,-82.6616
468,222.5,2021-02-02,2025-12-08,39.53976,"LOGAN 0.2 NNE, OH US",0.8453,GHCND:US1OHHK0009,METERS,-82.40047
469,222.8,2009-01-30,2011-01-01,39.1872,"CINCINNATI 7.3 NE, OH US",0.6097,GHCND:US1OHHM0002,METERS,-84.4411
470,244.1,2009-02-04,2025-12-05,39.2407,"WYOMING 1.2 NW, OH US",0.5999,GHCND:US1OHHM0003,METERS,-84.4995
471,149.7,2009-01-29,2012-12-29,39.196653,"CLEVES 2.7 NNW, OH US",0.2041,GHCND:US1OHHM0004,METERS,-84.774053
472,267.3,2009-02-06,2016-05-07,39.144789,"CHEVIOT 0.9 SSE, OH US",0.9554,GHCND:US1OHHM0005,METERS,-84.607845
473,220.7,2009-04-12,2009-08-17,39.09,"SHERWOOD 0.4 N, OH US",0.7813,GHCND:US1OHHM0007,METERS,-84.361
474,259.7,2009-05-07,2012-09-01,39.2027,"WHITE OAK EAST 0.9 E, OH US",0.2784,GHCND:US1OHHM0009,METERS,-84.57434
475,252.7,2010-03-09,2025-12-09,39.25,"CINCINNATI 8.9 NW, OH US",0.9725,GHCND:US1OHHM0013,METERS,-84.579
476,240.8,2010-03-15,2020-06-23,39.264473,"SHARONVILLE 1.4 SE, OH US",0.2208,GHCND:US1OHHM0014,METERS,-84.391922
477,225.9,2011-04-18,2014-11-17,39.267764,"LOVELAND 0.4 W, OH US",0.3168,GHCND:US1OHHM0015,METERS,-84.282106
478,257.6,2011-08-01,2024-10-01,39.1052,"COVEDALE 1.5 SSE, OH US",0.8759,GHCND:US1OHHM0017,METERS,-84.6247
479,187.5,2012-01-16,2015-08-03,39.2953,"N8ASV HARRISON 3.6 NNE, OH US",0.2901,GHCND:US1OHHM0020,METERS,-84.7611
480,189.0,2013-02-26,2013-08-09,39.15346,"CINCINNATI 5.3 NE, OH US",0.7879,GHCND:US1OHHM0022,METERS,-84.438556
481,282.5,2015-06-06,2020-04-29,39.199981,"CINCINNATI 8.4 NW, OH US",0.9777,GHCND:US1OHHM0023,METERS,-84.60743
482,181.4,2017-03-23,2019-06-20,39.26,"HARRISON 1.0 NW, OH US",0.9976,GHCND:US1OHHM0026,METERS,-84.807
483,234.4,2017-09-07,2021-10-30,39.089314,"CINCINNATI 6.7 E, OH US",0.9947,GHCND:US1OHHM0031,METERS,-84.38652
484,244.4,2018-06-29,2025-12-09,39.28283,"HARRISON 2.5 NNE, OH US",0.4528,GHCND:US1OHHM0035,METERS,-84.77393
485,262.7,2018-11-18,2025-12-09,39.08405,"CHERRY GROVE 0.4 NW, OH US",0.9957,GHCND:US1OHHM0037,METERS,-84.32803
486,190.8,2018-12-29,2020-09-15,39.126391,"CINCINNATI 4.2 ESE, OH US",0.8756,GHCND:US1OHHM0038,METERS,-84.429922
487,248.4,2019-04-24,2019-11-07,39.21577,"KENWOOD 0.7 N, OH US",0.6717,GHCND:US1OHHM0042,METERS,-84.374615
488,270.4,2019-11-28,2025-03-22,39.100022,"CHEVIOT 4.0 S, OH US",0.7951,GHCND:US1OHHM0045,METERS,-84.609173
489,248.4,2020-03-10,2025-04-12,39.10654,"CINCINNATI 6.7 W, OH US",0.636,GHCND:US1OHHM0046,METERS,-84.6376
490,253.6,2020-04-14,2020-11-15,39.20856,"CINCINNATI 9.1 NE, OH US",0.713,GHCND:US1OHHM0047,METERS,-84.41032
491,254.5,2020-06-01,2025-07-21,39.257187,"NORTHGATE 2.8 W, OH US",0.2243,GHCND:US1OHHM0054,METERS,-84.644963
492,88.1,2020-07-01,2021-09-09,39.225073,"CINCINNATI 8.4 N, OH US",0.9862,GHCND:US1OHHM0055,METERS,-84.501855
493,266.7,2020-07-31,2025-12-09,39.206787,"CINCINNATI 7.4 NNW, OH US",0.9964,GHCND:US1OHHM0056,METERS,-84.545949
494,226.5,2019-05-24,2023-09-14,39.261286,"LOVELAND 0.6 SW, OH US",0.5302,GHCND:US1OHHM0058,METERS,-84.281823
495,237.4,2020-11-10,2022-03-08,39.2163,"KENWOOD 1.0 NE, OH US",0.7293,GHCND:US1OHHM0059,METERS,-84.3612
496,267.6,2020-07-25,2023-11-18,39.29034,"SHARONVILLE 1.9 ENE, OH US",0.5545,GHCND:US1OHHM0061,METERS,-84.37375
497,223.4,2021-03-09,2025-12-09,39.080768,"CINCINNATI 7.5 E, OH US",0.8981,GHCND:US1OHHM0064,METERS,-84.375201
498,162.8,2021-06-03,2022-02-18,39.11567,"ADDYSTON 1.8 SSE, OH US",0.9195,GHCND:US1OHHM0067,METERS,-84.69479
499,185.3,2021-10-16,2025-12-08,39.201591,"CINCINNATI 7.8 NNE, OH US",0.7248,GHCND:US1OHHM0068,METERS,-84.445906
500,247.5,2021-10-31,2025-12-09,39.067218,"SHERWOOD 1.3 SSW, OH US",1.0,GHCND:US1OHHM0069,METERS,-84.371122
501,198.1,2022-02-21,2025-12-09,39.149955,"CINCINNATI 3.0 ENE, OH US",0.8876,GHCND:US1OHHM0071,METERS,-84.451206
502,203.3,2022-03-31,2025-12-08,39.1715,"CLEVES 0.7 NNE, OH US",0.9741,GHCND:US1OHHM0075,METERS,-84.7446
503,271.6,2023-01-30,2024-09-25,39.095041,"COVEDALE 2.9 SE, OH US",0.4893,GHCND:US1OHHM0077,METERS,-84.601753
504,203.3,2024-04-14,2025-12-07,39.272121,"GLENDALE 0.2 WNW, OH US",0.529,GHCND:US1OHHM0078,METERS,-84.461928
505,242.6,2023-01-01,2025-12-09,39.232301,"WYOMING 0.5 WNW, OH US",0.9236,GHCND:US1OHHM0080,METERS,-84.49078
506,264.6,2023-04-10,2025-12-09,39.147802,"MACK SOUTH 0.4 N, OH US",0.9149,GHCND:US1OHHM0086,METERS,-84.672655
507,162.5,2023-03-20,2025-11-23,39.148372,"FAIRFAX 0.5 NE, OH US",0.7316,GHCND:US1OHHM0087,METERS,-84.39035
508,227.7,2023-04-12,2025-12-08,39.084208,"SHERWOOD 1.2 W, OH US",0.7737,GHCND:US1OHHM0092,METERS,-84.38374
509,257.6,2023-04-27,2024-03-02,39.20616,"DEER PARK 0.5 WNW, OH US",0.9807,GHCND:US1OHHM0093,METERS,-84.40485
510,251.2,2023-07-04,2025-12-09,39.1912,"SILVERTON 0.2 NE, OH US",0.8697,GHCND:US1OHHM0094,METERS,-84.3982
511,251.8,2023-10-02,2025-12-09,39.253901,"NORTHBROOK 1.1 ENE, OH US",0.9713,GHCND:US1OHHM0096,METERS,-84.559518
512,249.9,2024-03-13,2025-12-09,39.21363,"DILLONVALE 0.6 WSW, OH US",0.9513,GHCND:US1OHHM0099,METERS,-84.411734
513,296.0,2009-04-06,2010-10-24,41.0971051,"NEW LONDON 4.4 WNW, OH US",0.5414,GHCND:US1OHHR0001,METERS,-82.4873992
514,226.2,2009-04-09,2025-12-09,41.28385765,"BELLEVUE 0.6 N, OH US",0.98,GHCND:US1OHHR0002,METERS,-82.84076354
515,263.0,2013-03-11,2014-01-14,41.2646369934082,"WAKEMAN 1.7 WNW, OH US",0.7903,GHCND:US1OHHR0005,METERS,-82.4352569580078
516,300.5,2014-04-29,2025-10-06,41.002834,"PLYMOUTH 1.6 WNW, OH US",0.3087,GHCND:US1OHHR0006,METERS,-82.696724
517,260.0,2014-08-07,2016-10-08,41.1679306030273,"NORWALK 5.1 S, OH US",0.7179,GHCND:US1OHHR0007,METERS,-82.6127014160156
518,224.9,2017-03-26,2025-12-08,41.223109,"NORWALK 2.1 SW, OH US",0.7462,GHCND:US1OHHR0010,METERS,-82.641963
519,232.9,2017-09-05,2025-12-08,41.244548,"NORWALK 1.2 E, OH US",0.882,GHCND:US1OHHR0011,METERS,-82.588285
520,298.7,2018-12-10,2023-08-24,41.1178,"NEW LONDON 6.1 WNW, OH US",0.2129,GHCND:US1OHHR0014,METERS,-82.5123
521,271.6,2022-10-26,2025-12-08,41.245633,"COLLINS 2.2 ESE, OH US",0.4403,GHCND:US1OHHR0016,METERS,-82.4535998
522,385.9,2016-12-14,2021-02-15,40.404846,"BLOOMINGDALE 5.4 NW, OH US",0.499,GHCND:US1OHHS0003,METERS,-80.878344
523,200.3,2009-08-18,2014-07-24,41.3893,"NAPOLEON 0.7 ESE, OH US",0.3291,GHCND:US1OHHY0002,METERS,-84.115417
524,203.3,2010-07-02,2015-08-10,41.3979337,"NAPOLEON 0.3 NNW, OH US",0.8939,GHCND:US1OHHY0003,METERS,-84.1290398
525,208.5,2011-03-16,2017-07-12,41.3396976,"NAPOLEON 3.8 S, OH US",0.2475,GHCND:US1OHHY0004,METERS,-84.1195561
526,207.6,2011-12-31,2023-07-05,41.328221,"MCCLURE 3.4 SSE, OH US",1.0,GHCND:US1OHHY0005,METERS,-83.908776
527,205.7,2013-03-09,2025-12-09,41.391012,"NAPOLEON 0.6 WSW, OH US",0.9367,GHCND:US1OHHY0007,METERS,-84.137842
528,214.9,2015-08-05,2025-12-09,41.4570251852274,"NAPOLEON 4.5 NNW, OH US",0.9989,GHCND:US1OHHY0009,METERS,-84.1496173292398
529,206.7,2020-05-03,2021-06-10,41.3645,"MCCLURE 0.4 SSE, OH US",0.4059,GHCND:US1OHHY0011,METERS,-83.94
530,225.2,2021-06-19,2025-11-25,41.193244,"NEW BAVARIA 2.3 WSW, OH US",0.6379,GHCND:US1OHHY0012,METERS,-84.209544
531,207.0,2022-07-04,2025-10-20,41.446225,"LIBERTY CENTER 0.3 NE, OH US",0.5419,GHCND:US1OHHY0013,METERS,-84.003064
532,204.5,2023-07-06,2025-12-09,41.379503,"NAPOLEON 1.2 SSE, OH US",1.0,GHCND:US1OHHY0014,METERS,-84.116006
533,250.9,2010-03-19,2011-01-06,39.002344,"JACKSON 4.0 SE, OH US",0.9082,GHCND:US1OHJC0002,METERS,-82.579079
534,214.6,2012-09-28,2025-12-04,38.88811,"OAK HILL 0.6 SSW, OH US",0.9165,GHCND:US1OHJC0004,METERS,-82.5742
535,232.6,2021-07-01,2022-05-13,39.073845,"JACKSON 4.0 ENE, OH US",0.3281,GHCND:US1OHJC0005,METERS,-82.5649
536,350.8,2016-12-13,2025-12-09,40.3760147094727,"STEUBENVILLE 2.0 WNW, OH US",0.7351,GHCND:US1OHJF0006,METERS,-80.6820220947266
537,375.5,2018-11-01,2025-12-09,40.16496667,"MOUNT PLEASANT 1.4 WSW, OH US",0.9087,GHCND:US1OHJF0009,METERS,-80.8229
538,357.5,2020-11-11,2025-12-09,40.3843,"WINTERSVILLE 0.7 WNW, OH US",0.8469,GHCND:US1OHJF0011,METERS,-80.7176
539,335.0,2009-02-02,2019-03-15,40.2748764160904,"CENTERBURG 5.3 ESE, OH US",0.2629,GHCND:US1OHKN0001,METERS,-82.6040124893188
540,365.5,2014-03-23,2025-12-09,40.535542,"FREDERICKTOWN 4.0 NNW, OH US",0.9942,GHCND:US1OHKN0004,METERS,-82.562833
541,379.8,2017-03-27,2018-04-09,40.46761,"FREDERICKTOWN 6.2 E, OH US",0.7493,GHCND:US1OHKN0005,METERS,-82.42923
542,309.4,2021-03-01,2025-12-09,40.392098,"MOUNT VERNON 0.2 WNW, OH US",0.9845,GHCND:US1OHKN0007,METERS,-82.478835
543,338.9,2024-03-15,2025-12-09,40.5048952,"FREDERICKTOWN 2.8 NE, OH US",0.948,GHCND:US1OHKN0009,METERS,-82.5053215
544,324.0,2009-02-03,2013-10-07,40.0273317,"PATASKALA 4.4 WNW, OH US",0.349,GHCND:US1OHLC0002,METERS,-82.7489517
545,364.8,2009-03-09,2025-11-08,40.152339,"GRANVILLE 5.7 N, OH US",0.2394,GHCND:US1OHLC0003,METERS,-82.517133
546,261.8,2010-04-01,2011-01-06,40.06794,"NEWARK 0.3 E, OH US",0.9858,GHCND:US1OHLC0005,METERS,-82.41784
547,346.9,2010-03-31,2010-11-24,40.1488,"JOHNSTOWN 2.3 E, OH US",0.5272,GHCND:US1OHLC0007,METERS,-82.644
548,339.9,2010-06-19,2025-12-09,40.1282,"GRANVILLE 4.0 N, OH US",0.9473,GHCND:US1OHLC0010,METERS,-82.5158
549,370.9,2012-09-18,2017-11-10,40.0239868164063,"PATASKALA 2.0 NE, OH US",0.8899,GHCND:US1OHLC0011,METERS,-82.651123046875
550,361.8,2015-08-09,2025-12-09,40.154243,"GRANVILLE 5.6 N, OH US",0.6976,GHCND:US1OHLC0014,METERS,-82.510109
551,324.6,2015-10-14,2018-01-24,40.052727,"GRANVILLE 2.6 WSW, OH US",0.3094,GHCND:US1OHLC0015,METERS,-82.544505
552,299.0,2016-01-18,2020-05-29,39.9598350524902,"REYNOLDSBURG 1.1 ENE, OH US",0.9442,GHCND:US1OHLC0016,METERS,-82.7789993286133
553,353.3,2016-02-04,2025-11-23,40.196615,"JOHNSTOWN 3.2 N, OH US",0.2332,GHCND:US1OHLC0018,METERS,-82.679684
554,327.4,2018-07-16,2025-12-08,39.998035,"PATASKALA 3.2 E, OH US",0.956,GHCND:US1OHLC0022,METERS,-82.613584
555,267.6,2019-04-14,2019-11-07,40.129737,"NEWARK 4.3 N, OH US",0.7212,GHCND:US1OHLC0024,METERS,-82.430103
556,277.1,2020-02-13,2025-12-09,40.14487,"NEWARK 9.9 ENE, OH US",1.0,GHCND:US1OHLC0028,METERS,-82.2664
557,310.3,2020-04-28,2025-12-09,40.000817,"PATASKALA 0.2 E, OH US",0.9708,GHCND:US1OHLC0029,METERS,-82.6696
558,357.2,2017-07-21,2025-12-09,40.013032,"PATASKALA 2.1 ENE, OH US",0.6008,GHCND:US1OHLC0030,METERS,-82.638091
559,262.4,2021-03-20,2024-12-25,40.067761,"NEWARK 0.3 E, OH US",0.9724,GHCND:US1OHLC0034,METERS,-82.417811
560,330.1,2022-04-05,2025-12-09,40.0094,"PATASKALA 3.2 W, OH US",0.8416,GHCND:US1OHLC0039,METERS,-82.7333
561,328.3,2023-04-05,2025-12-02,40.0097093452208,"PATASKALA 0.9 NE, OH US",0.3956,GHCND:US1OHLC0044,METERS,-82.662009374075
562,259.1,2024-03-14,2025-12-09,40.01718,"HEATH 0.7 SSW, OH US",0.978,GHCND:US1OHLC0045,METERS,-82.44284
563,332.8,2009-03-01,2025-12-07,40.273008,"EAST LIBERTY 4.2 SSE, OH US",0.1809,GHCND:US1OHLG0002,METERS,-83.559698
564,331.3,2019-07-13,2019-11-26,40.25470183,"WEST LIBERTY 0.5 E, OH US",0.7518,GHCND:US1OHLG0009,METERS,-83.74824517
565,302.1,2020-05-11,2025-12-08,40.4911,"LAKEVIEW 0.2 N, OH US",0.9588,GHCND:US1OHLG0012,METERS,-83.92532
566,417.0,2021-03-28,2025-12-07,40.378611,"BELLEFONTAINE 1.4 NNE, OH US",0.8642,GHCND:US1OHLG0015,METERS,-83.746651
567,323.7,2021-07-25,2025-11-29,40.497679,"BELLE CENTER 1.1 SE, OH US",0.3109,GHCND:US1OHLG0016,METERS,-83.73037
568,224.0,2009-01-02,2014-04-28,41.674519,"PAINESVILLE 3.8 SSW, OH US",0.9043,GHCND:US1OHLK0001,METERS,-81.266938
569,253.9,2008-01-14,2009-07-28,41.5885946,"WILLOUGHBY HILLS 0.3 NE, OH US",0.1886,GHCND:US1OHLK0003,METERS,-81.4318043
570,242.0,2009-03-13,2009-08-03,41.60322,"WILLOUGHBY HILLS 1.3 NNW, OH US",0.7222,GHCND:US1OHLK0004,METERS,-81.443521
571,327.1,2009-03-10,2015-06-30,41.588616,"KIRTLAND 0.9 SW, OH US",0.8411,GHCND:US1OHLK0005,METERS,-81.349096
572,217.6,2010-05-01,2018-11-11,41.6095,"WICKLIFFE 0.6 E, OH US",0.0469,GHCND:US1OHLK0006,METERS,-81.45583333
573,218.5,2015-03-17,2024-05-31,41.61506,"WILLOUGHBY 2.9 SW, OH US",1.0,GHCND:US1OHLK0009,METERS,-81.44592
574,224.6,2016-04-22,2025-12-09,41.76833333,"MADISON 0.9 WSW, OH US",0.6013,GHCND:US1OHLK0011,METERS,-81.06972222
575,216.7,2020-12-15,2025-12-07,41.6779,"MENTOR 2.1 ESE, OH US",0.9175,GHCND:US1OHLK0018,METERS,-81.2971
576,187.1,2024-05-26,2025-12-08,41.7014,"WILLOUGHBY 3.9 NNE, OH US",0.7563,GHCND:US1OHLK0024,METERS,-81.3912
577,185.9,2024-06-01,2025-12-09,41.6931,"WILLOUGHBY 3.2 N, OH US",1.0,GHCND:US1OHLK0025,METERS,-81.4062
578,284.1,1998-06-17,2025-12-06,41.113436,"WELLINGTON 5.5 SW, OH US",0.5744,GHCND:US1OHLR0002,METERS,-82.303572
579,181.1,2009-02-17,2022-02-03,41.49,"SHEFFIELD LAKE 0.5 E, OH US",0.7848,GHCND:US1OHLR0003,METERS,-82.0874
580,214.6,2009-05-16,2017-11-08,41.409646,"NORTH RIDGEVILLE 2.4 NW, OH US",0.2601,GHCND:US1OHLR0004,METERS,-82.052026
581,234.7,2009-06-09,2010-06-01,41.29337,"OBERLIN 2.8 E, OH US",0.9972,GHCND:US1OHLR0005,METERS,-82.16239
582,229.2,2010-03-10,2021-07-05,41.352905,"NORTH RIDGEVILLE 2.8 SSW, OH US",0.3515,GHCND:US1OHLR0006,METERS,-82.040504
583,216.4,2010-06-02,2025-12-09,41.376281,"ELYRIA 0.4 SE, OH US",0.9772,GHCND:US1OHLR0008,METERS,-82.099184
584,209.1,2011-09-14,2015-04-06,41.437,"AVON 1.6 SW, OH US",0.8885,GHCND:US1OHLR0010,METERS,-82.0477
585,229.8,2011-10-03,2012-11-01,41.3435859,"ELYRIA 3.0 SE, OH US",0.9596,GHCND:US1OHLR0011,METERS,-82.0732742
586,246.0,2020-07-23,2025-11-26,41.301631,"OBERLIN 0.9 NNE, OH US",0.6365,GHCND:US1OHLR0024,METERS,-82.208816
587,214.6,2020-08-19,2025-12-08,41.4155,"NORTH RIDGEVILLE 2.5 NE, OH US",0.9711,GHCND:US1OHLR0025,METERS,-81.9844
588,214.0,2021-01-01,2023-11-28,41.41624,"NORTH RIDGEVILLE 2.5 NE, OH US",0.8616,GHCND:US1OHLR0026,METERS,-81.9854
589,181.4,2021-06-07,2025-12-09,41.427487,"VERMILION 1.7 NW, OH US",0.9915,GHCND:US1OHLR0027,METERS,-82.344433
590,248.1,2022-04-29,2025-12-09,41.32482,"WAKEMAN 6.1 NE, OH US",0.9818,GHCND:US1OHLR0030,METERS,-82.3304
591,193.2,2022-06-07,2025-12-08,41.46225,"AVON 1.1 NW, OH US",0.993,GHCND:US1OHLR0032,METERS,-82.03939
592,187.5,2023-04-08,2025-12-09,41.467561,"LORAIN 2.6 NE, OH US",0.9918,GHCND:US1OHLR0036,METERS,-82.148127
593,216.7,2023-12-22,2025-12-09,41.388232,"AMHERST 0.9 SSE, OH US",0.8178,GHCND:US1OHLR0040,METERS,-82.2236226
594,266.1,2024-03-30,2025-11-09,41.218883,"GRAFTON 4.3 S, OH US",0.7119,GHCND:US1OHLR0041,METERS,-82.039949
595,182.0,2009-01-29,2021-02-15,41.6822787,"TOLEDO 2.4 ENE, OH US",0.5528,GHCND:US1OHLS0001,METERS,-83.5412106
596,177.7,2009-02-18,2010-01-07,41.71775,"TOLEDO 4.7 NE, OH US",1.0,GHCND:US1OHLS0005,METERS,-83.52604
597,203.9,2009-02-11,2017-09-10,41.721385,"SYLVANIA 1.4 WNW, OH US",0.5134,GHCND:US1OHLS0009,METERS,-83.732402
598,183.8,2009-02-11,2009-12-26,41.69157,"TOLEDO 2.1 NNE, OH US",0.9498,GHCND:US1OHLS0012,METERS,-83.56718
599,182.0,2009-03-08,2025-12-09,41.6305,"OREGON 2.8 SSW, OH US",0.7229,GHCND:US1OHLS0014,METERS,-83.4411
600,178.0,2010-06-02,2018-10-12,41.708023,"TOLEDO 5.7 ENE, OH US",0.0769,GHCND:US1OHLS0016,METERS,-83.487756
601,,2012-09-13,2014-04-15,41.6856,"SYLVANIA 2.2 SSE, OH US",0.2552,GHCND:US1OHLS0018,,-83.6864471435547
602,189.3,2014-05-15,2021-09-22,41.649845,"TOLEDO 2.2 WSW, OH US",0.385,GHCND:US1OHLS0021,METERS,-83.620306
603,196.6,2014-10-16,2025-12-09,41.5308685302734,"WATERVILLE 2.4 NNE, OH US",0.9907,GHCND:US1OHLS0022,METERS,-83.7188262939453
604,211.8,2015-03-26,2025-12-09,41.670988,"SWANTON 6.7 NNE, OH US",0.9977,GHCND:US1OHLS0023,METERS,-83.835347
605,199.9,2018-03-13,2021-08-30,41.56214,"MAUMEE 0.8 S, OH US",0.1358,GHCND:US1OHLS0028,METERS,-83.6553
606,191.7,2015-09-02,2024-12-03,41.583808,"MAUMEE 1.5 ENE, OH US",0.4516,GHCND:US1OHLS0034,METERS,-83.627922
607,188.7,2020-12-11,2022-06-26,41.624865,"TOLEDO 3.8 SE, OH US",0.9858,GHCND:US1OHLS0036,METERS,-83.53046
608,205.1,2021-08-21,2025-11-27,41.66035,"HOLLAND 4.5 NW, OH US",0.7897,GHCND:US1OHLS0038,METERS,-83.77769
609,185.9,2022-06-29,2024-12-18,41.638332,"TOLEDO 3.3 ESE, OH US",0.9912,GHCND:US1OHLS0040,METERS,-83.528147
610,193.9,2022-07-19,2025-12-09,41.7018805222019,"TOLEDO 3.9 NW, OH US",0.9452,GHCND:US1OHLS0041,METERS,-83.636630213562
611,169.2,2012-03-09,2016-01-22,38.4223537892103,"CHESAPEAKE 1.4 WSW, OH US",0.0771,GHCND:US1OHLW0006,METERS,-82.4747601896524
612,228.0,2024-03-25,2025-02-06,38.454176,"CHESAPEAKE 2.4 NW, OH US",0.3636,GHCND:US1OHLW0015,METERS,-82.483715
613,304.2,2017-02-22,2017-10-11,39.871408,"LONDON 3.4 ESE, OH US",0.5991,GHCND:US1OHMA0005,METERS,-83.380597
614,317.6,2020-10-19,2025-12-09,39.90617,"LONDON 1.2 N, OH US",0.9505,GHCND:US1OHMA0009,METERS,-83.43667
615,295.4,2021-03-18,2023-04-23,40.064,"PLAIN CITY 3.8 SW, OH US",0.5319,GHCND:US1OHMA0011,METERS,-83.3163
616,313.6,2021-04-14,2025-12-02,39.9461688,"LONDON 3.9 N, OH US",0.5254,GHCND:US1OHMA0013,METERS,-83.4419795
617,313.6,2022-05-22,2025-11-26,39.8986,"LONDON 1.1 NE, OH US",0.1844,GHCND:US1OHMA0014,METERS,-83.42452
618,264.6,2011-03-09,2016-11-14,40.5671240866159,"CELINA 1.8 ENE, OH US",0.7093,GHCND:US1OHMC0001,METERS,-84.5410045981407
619,258.5,2011-03-24,2017-11-13,40.5934050416499,"CELINA 3.1 NNE, OH US",0.2258,GHCND:US1OHMC0002,METERS,-84.5415195822716
620,292.0,2014-07-01,2025-12-09,40.369942,"MARIA STEIN 3.0 SSW, OH US",0.9909,GHCND:US1OHMC0007,METERS,-84.521412
621,268.5,2022-05-31,2025-12-08,40.56079,"CELINA 0.7 NE, OH US",0.8284,GHCND:US1OHMC0011,METERS,-84.56243
622,263.0,2023-03-28,2025-12-08,40.539803,"CELINA 1.0 SSW, OH US",0.2634,GHCND:US1OHMC0012,METERS,-84.57813
623,400.2,2009-02-09,2025-12-09,41.04276,"WADSWORTH 4.7 WNW, OH US",0.9525,GHCND:US1OHMD0001,METERS,-81.819276
624,342.0,2009-01-28,2025-12-08,41.2498,"BRUNSWICK 0.5 NE, OH US",0.998,GHCND:US1OHMD0002,METERS,-81.8133
625,369.1,2011-06-26,2019-10-12,41.1807534824924,"MEDINA 7.6 ENE, OH US",0.7189,GHCND:US1OHMD0004,METERS,-81.7297410964966
626,269.1,2011-06-26,2014-05-12,41.244129,"VALLEY CITY 1.6 ENE, OH US",0.1226,GHCND:US1OHMD0005,METERS,-81.902374
627,290.2,2014-03-11,2014-11-01,41.1555,"MEDINA 1.7 NE, OH US",1.0,GHCND:US1OHMD0006,METERS,-81.8477
628,335.9,2017-04-05,2020-04-11,41.148741,"MEDINA 1.5 NW, OH US",0.2647,GHCND:US1OHMD0009,METERS,-81.890479
629,319.1,2017-11-22,2025-12-09,41.1412,"MEDINA 0.8 ENE, OH US",0.998,GHCND:US1OHMD0010,METERS,-81.8534
630,371.9,2020-12-20,2025-11-26,41.053323,"SEVILLE 2.9 NE, OH US",0.7665,GHCND:US1OHMD0014,METERS,-81.828748
631,271.3,2022-04-25,2025-12-09,41.0989,"SPENCER 1.5 E, OH US",0.9992,GHCND:US1OHMD0016,METERS,-82.0938
632,305.4,2022-08-11,2025-12-07,41.0242991,"SEVILLE 0.2 NW, OH US",0.977,GHCND:US1OHMD0019,METERS,-81.8704153
633,331.9,2024-04-02,2025-12-09,41.130786,"MEDINA 0.4 SSE, OH US",0.859,GHCND:US1OHMD0021,METERS,-81.864384
634,219.8,2011-06-05,2012-02-07,39.656299,"MCCONNELSVILLE 0.5 WNW, OH US",0.9637,GHCND:US1OHMG0001,METERS,-81.852598
635,289.0,2020-10-28,2025-12-08,39.55292,"GLOUSTER 5.7 NE, OH US",0.977,GHCND:US1OHMG0003,METERS,-82.00011
636,312.1,2009-07-05,2013-07-31,41.009172,"POLAND 1.0 S, OH US",0.1176,GHCND:US1OHMH0002,METERS,-80.617635
637,336.8,2012-08-01,2012-11-26,41.05955,"YOUNGSTOWN 2.8 S, OH US",0.9576,GHCND:US1OHMH0007,METERS,-80.65493
638,363.6,2015-03-26,2017-05-01,40.956733,"CANFIELD 5.1 S, OH US",0.2331,GHCND:US1OHMH0009,METERS,-80.773069
639,378.3,2016-06-21,2025-12-09,40.953167,"SALEM 4.5 NE, OH US",1.0,GHCND:US1OHMH0010,METERS,-80.799213
640,332.5,2017-10-22,2025-12-08,41.036440399,"CANFIELD 0.5 N, OH US",1.0,GHCND:US1OHMH0011,METERS,-80.7658596
641,341.1,2023-01-29,2025-12-09,40.9473,"NORTH LIMA 1.9 W, OH US",0.999,GHCND:US1OHMH0021,METERS,-80.6966
642,225.2,2018-11-14,2024-09-23,40.13702,"DRESDEN 1.1 N, OH US",0.1808,GHCND:US1OHMK0011,METERS,-82.010169
643,339.2,2018-11-29,2025-12-09,39.975261,"NORWICH 1.1 SE, OH US",0.6597,GHCND:US1OHMK0012,METERS,-81.776663
644,327.7,2019-01-13,2025-12-08,39.9235,"NEW CONCORD 5.2 SSW, OH US",0.9366,GHCND:US1OHMK0013,METERS,-81.7578
645,274.0,2009-02-03,2023-02-28,40.135843,"PIQUA 0.8 SSE, OH US",0.9951,GHCND:US1OHMM0001,METERS,-84.247631
646,286.2,2009-03-13,2015-11-28,40.118084,"PIQUA 3.4 SE, OH US",0.6113,GHCND:US1OHMM0002,METERS,-84.199149
647,281.3,2009-05-04,2009-11-24,39.979658,"WEST MILTON 2.9 NE, OH US",0.922,GHCND:US1OHMM0003,METERS,-84.282197
648,271.0,2017-04-01,2023-08-29,39.99181,"TROY 3.7 S, OH US",0.9906,GHCND:US1OHMM0011,METERS,-84.20953
649,268.5,2017-11-01,2025-12-09,39.99982,"TROY 3.1 S, OH US",0.9284,GHCND:US1OHMM0013,METERS,-84.21136
650,256.0,2018-12-31,2025-12-09,39.9573,"TIPP CITY 0.6 SE, OH US",0.9756,GHCND:US1OHMM0014,METERS,-84.17494
651,295.4,2019-06-08,2025-11-09,40.057155,"PLEASANT HILL 1.9 WNW, OH US",0.2612,GHCND:US1OHMM0015,METERS,-84.380447
652,284.7,2020-07-23,2025-12-02,40.12119,"COVINGTON 0.2 NE, OH US",0.2124,GHCND:US1OHMM0018,METERS,-84.34817
653,279.2,2020-12-12,2025-05-05,40.04499,"TROY 1.8 W, OH US",0.6986,GHCND:US1OHMM0019,METERS,-84.252304
654,280.7,2021-04-03,2025-11-09,39.9294015,"TIPP CITY 2.4 S, OH US",0.4233,GHCND:US1OHMM0020,METERS,-84.1762665
655,268.5,2021-04-09,2025-08-24,40.053076,"TROY 2.3 ENE, OH US",0.5641,GHCND:US1OHMM0021,METERS,-84.177139
656,299.6,2020-08-02,2022-03-08,39.891882,"TIPP CITY 6.3 SE, OH US",0.5017,GHCND:US1OHMM0022,METERS,-84.111018
657,260.3,2022-03-13,2025-10-19,39.9413,"TIPP CITY 1.6 SSE, OH US",0.4525,GHCND:US1OHMM0023,METERS,-84.17652
658,289.6,2022-03-29,2023-01-08,40.14073,"PIQUA 0.8 WSW, OH US",0.6923,GHCND:US1OHMM0024,METERS,-84.26479
659,258.5,2023-03-17,2023-09-02,40.0462041,"TROY 2.1 E, OH US",0.8294,GHCND:US1OHMM0026,METERS,-84.1795506
660,297.2,2023-04-01,2025-12-09,39.9707731,"WEST MILTON 1.7 NW, OH US",0.9746,GHCND:US1OHMM0027,METERS,-84.34831
661,287.7,2023-03-01,2025-12-09,40.128743,"PIQUA 1.4 SSW, OH US",0.999,GHCND:US1OHMM0029,METERS,-84.264354
662,267.3,2022-11-20,2025-12-08,39.5982,"LOWER SALEM 9.0 ENE, OH US",0.9946,GHCND:US1OHMN0003,METERS,-81.23095
663,292.0,2009-02-08,2009-09-22,40.5697,"MARION 1.9 ESE, OH US",1.0,GHCND:US1OHMR0001,METERS,-83.0969
664,281.0,2009-02-26,2025-12-09,40.531238,"MARION 4.2 SSE, OH US",0.8129,GHCND:US1OHMR0003,METERS,-83.088508
665,275.8,2012-03-23,2019-09-07,40.68861111,"MORRAL 0.1 S, OH US",0.0594,GHCND:US1OHMR0006,METERS,-83.21277778
666,286.5,2015-03-18,2025-11-19,40.584557,"NEW BLOOMINGTON 0.9 W, OH US",0.3444,GHCND:US1OHMR0009,METERS,-83.3315875
667,300.8,2019-06-01,2025-05-17,40.593143,"MARION 1.3 ENE, OH US",0.202,GHCND:US1OHMR0010,METERS,-83.10633
668,217.3,2013-12-28,2021-07-25,39.1949547082186,"ALBANY 2.1 SSE, OH US",0.884,GHCND:US1OHMS0002,METERS,-82.1869256347418
669,183.2,2020-10-12,2023-12-27,38.97426,"CHESHIRE 2.3 NNE, OH US",0.442,GHCND:US1OHMS0006,METERS,-82.09336
670,411.2,2009-06-26,2014-11-13,40.6672,"LEXINGTON 3.2 WSW, OH US",0.5831,GHCND:US1OHMW0002,METERS,-82.6469
671,395.3,2012-03-19,2015-08-06,40.3585298359394,"CENTERBURG 4.1 NNW, OH US",0.1869,GHCND:US1OHMW0003,METERS,-82.7250753343105
672,361.8,2015-10-28,2025-12-08,40.514267,"MOUNT GILEAD 4.9 ESE, OH US",0.964,GHCND:US1OHMW0004,METERS,-82.755614
673,365.2,2017-03-21,2019-01-01,40.711508,"GALION 1.8 SE, OH US",0.6595,GHCND:US1OHMW0005,METERS,-82.767831
674,306.0,2021-11-05,2023-12-31,40.47277,"CARDINGTON 1.9 SSW, OH US",0.9619,GHCND:US1OHMW0006,METERS,-82.90407
675,294.1,2009-02-09,2016-03-13,39.631389,"CENTERVILLE 1.7 WSW, OH US",0.2988,GHCND:US1OHMY0004,METERS,-84.169722
676,251.8,1998-06-17,2025-12-09,39.680672,"FARMERSVILLE 1.7 E, OH US",0.6101,GHCND:US1OHMY0005,METERS,-84.395424
677,295.7,2009-03-25,2012-09-08,39.6252,"CENTERVILLE 1.4 SW, OH US",0.678,GHCND:US1OHMY0006,METERS,-84.1548
678,298.1,2009-08-24,2025-10-20,39.806978,"FORT MCKINLEY 0.3 ENE, OH US",0.0747,GHCND:US1OHMY0007,METERS,-84.251336
679,304.5,2010-04-02,2025-12-07,39.694915,"KETTERING 0.2 ESE, OH US",0.6502,GHCND:US1OHMY0009,METERS,-84.146415
680,301.4,2012-07-29,2025-12-09,39.879536,"HUBER HEIGHTS 1.8 NNW, OH US",0.9916,GHCND:US1OHMY0018,METERS,-84.127826
681,317.3,2012-09-08,2020-01-12,39.832926,"BROOKVILLE 0.6 ESE, OH US",0.2919,GHCND:US1OHMY0019,METERS,-84.405227
682,298.1,2012-09-07,2017-07-15,39.624702,"GERMANTOWN 5.4 W, OH US",0.8331,GHCND:US1OHMY0020,METERS,-84.462434
683,250.5,2012-09-11,2023-08-24,39.71797,"KETTERING 2.8 WNW, OH US",0.239,GHCND:US1OHMY0021,METERS,-84.19394
684,295.7,2012-12-17,2025-08-01,39.7170524597168,"DAYTON 3.2 SSE, OH US",0.5003,GHCND:US1OHMY0023,METERS,-84.1668243408203
685,290.5,2013-05-27,2019-09-21,39.854641,"DAYTON 6.7 NNW, OH US",0.9476,GHCND:US1OHMY0025,METERS,-84.211168
686,274.9,2014-07-14,2017-12-23,39.708262,"FARMERSVILLE 2.4 NNE, OH US",0.4925,GHCND:US1OHMY0033,METERS,-84.404082
687,299.0,2015-01-01,2025-12-08,39.897945,"UNION 1.0 WSW, OH US",0.9977,GHCND:US1OHMY0034,METERS,-84.3284
688,282.2,2015-03-11,2018-05-22,39.850265,"NORTHVIEW 0.5 N, OH US",0.1223,GHCND:US1OHMY0036,METERS,-84.281036
689,305.4,2015-07-13,2025-12-09,39.585429,"CENTERVILLE 3.9 S, OH US",0.9966,GHCND:US1OHMY0039,METERS,-84.149543
690,241.7,2017-03-20,2017-12-06,39.76595,"RIVERSIDE 1.1 SSE, OH US",1.0,GHCND:US1OHMY0045,METERS,-84.11798
691,292.3,2017-03-20,2025-12-08,39.622712,"MIAMISBURG 1.5 SE, OH US",0.904,GHCND:US1OHMY0046,METERS,-84.252881
692,305.4,2017-03-31,2025-06-15,39.600496,"CENTERVILLE 3.1 SSW, OH US",0.1094,GHCND:US1OHMY0048,METERS,-84.162471
693,276.5,2018-02-22,2018-12-03,39.74236,"DAYTON 3.6 SE, OH US",0.8386,GHCND:US1OHMY0051,METERS,-84.14919
694,314.2,2018-02-27,2025-10-26,39.831189,"BROOKVILLE 0.4 SSW, OH US",0.0836,GHCND:US1OHMY0052,METERS,-84.418201
695,239.3,2018-02-19,2019-10-12,39.8642296,"HUBER HEIGHTS 2.9 WNW, OH US",0.2995,GHCND:US1OHMY0053,METERS,-84.1656314
696,279.8,2019-03-24,2025-12-09,39.74192,"DAYTON 3.7 SE, OH US",0.4468,GHCND:US1OHMY0056,METERS,-84.14727
697,249.0,2019-04-18,2025-07-28,39.629461,"GERMANTOWN 0.8 WSW, OH US",0.299,GHCND:US1OHMY0059,METERS,-84.375189
698,301.1,2019-06-24,2025-12-09,39.8604183,"DAYTON 5.8 NNW, OH US",0.8729,GHCND:US1OHMY0061,METERS,-84.223413
699,276.1,2019-08-24,2022-02-25,39.6403,"CENTERVILLE 2.8 W, OH US",0.6619,GHCND:US1OHMY0062,METERS,-84.1931
700,305.1,2019-09-23,2020-10-24,39.58805,"FIVE POINTS 1.9 NNE, OH US",0.3367,GHCND:US1OHMY0064,METERS,-84.18799
701,241.4,2020-05-11,2021-05-18,39.7712,"RIVERSIDE 0.8 SSE, OH US",0.5979,GHCND:US1OHMY0069,METERS,-84.11649
702,289.9,2020-05-24,2020-11-13,39.795755,"DAYTON 1.8 NW, OH US",0.9368,GHCND:US1OHMY0070,METERS,-84.222451
703,296.3,2021-03-22,2025-11-30,39.7172,"DAYTON 4.7 SSE, OH US",0.4886,GHCND:US1OHMY0075,METERS,-84.1627
704,280.1,2021-03-16,2025-12-09,39.85927,"DAYTON 6.0 NNW, OH US",0.9532,GHCND:US1OHMY0076,METERS,-84.24298
705,303.9,2021-09-22,2025-12-09,39.8611,"CLAYTON 0.6 E, OH US",0.8792,GHCND:US1OHMY0079,METERS,-84.34417
706,288.6,2022-04-04,2024-11-12,39.859326,"ENGLEWOOD 0.7 E, OH US",0.9864,GHCND:US1OHMY0083,METERS,-84.2942
707,281.3,2024-04-10,2025-12-07,39.885189,"VANDALIA 1.1 ENE, OH US",0.8171,GHCND:US1OHMY0086,METERS,-84.175129
708,274.0,2022-05-17,2022-12-22,39.7068,"KETTERING 1.9 ENE, OH US",0.5727,GHCND:US1OHMY0087,METERS,-84.1165
709,285.6,2022-06-23,2025-11-26,39.6683674,"DAYTON 6.1 S, OH US",0.3328,GHCND:US1OHMY0088,METERS,-84.176339
710,236.5,2022-07-20,2025-12-09,39.797487,"RIVERSIDE 1.9 NW, OH US",0.9629,GHCND:US1OHMY0091,METERS,-84.151188
711,257.9,2023-03-24,2025-12-09,39.8677,"HUBER HEIGHTS 2.3 WNW, OH US",0.9778,GHCND:US1OHMY0095,METERS,-84.15378
712,296.0,2023-03-26,2025-12-09,39.639445,"CENTERVILLE 0.7 E, OH US",0.9475,GHCND:US1OHMY0096,METERS,-84.127265
713,329.8,2023-11-10,2025-11-22,39.581879,"FIVE POINTS 1.9 NE, OH US",0.6519,GHCND:US1OHMY0097,METERS,-84.171959
714,286.5,2023-09-12,2024-09-28,39.7513,"DAYTON 5.5 ESE, OH US",0.4099,GHCND:US1OHMY0098,METERS,-84.1013
715,285.3,2024-01-01,2025-12-07,39.694418,"KETTERING 2.0 W, OH US",0.8444,GHCND:US1OHMY0099,METERS,-84.187243
716,314.9,2024-05-20,2025-12-09,39.897,"BROOKVILLE 5.0 NNW, OH US",1.0,GHCND:US1OHMY0106,METERS,-84.465
717,312.4,2022-04-12,2025-12-08,39.8915464,"SENECAVILLE 4.0 SE, OH US",0.9342,GHCND:US1OHNB0004,METERS,-81.4097631
718,275.5,2023-04-15,2025-10-31,39.919201,"SENECAVILLE 3.5 ESE, OH US",0.6037,GHCND:US1OHNB0005,METERS,-81.397484
719,175.0,2009-01-29,2025-06-01,41.503,"PORT CLINTON 2.5 W, OH US",0.9026,GHCND:US1OHOT0002,METERS,-82.9864
720,187.1,2009-01-18,2011-03-31,41.5217755,"GENOA 1.1 ENE, OH US",0.7547,GHCND:US1OHOT0003,METERS,-83.3392632
721,179.8,2012-07-15,2025-12-08,41.6389722,"PUT IN BAY 1.1 SSW, OH US",0.9763,GHCND:US1OHOT0004,METERS,-82.8248362
722,176.2,2013-04-13,2016-10-21,41.5127029418945,"PORT CLINTON 0.6 ENE, OH US",0.08,GHCND:US1OHOT0005,METERS,-82.9278335571289
723,179.8,2014-04-15,2016-02-24,41.527944,"MARBLEHEAD 5.3 W, OH US",0.2746,GHCND:US1OHOT0006,METERS,-82.823976
724,178.6,2017-03-31,2025-11-29,41.548034,"PORT CLINTON 5.5 ENE, OH US",0.2637,GHCND:US1OHOT0008,METERS,-82.846279
725,176.5,2018-10-28,2025-12-08,41.52388889,"PORT CLINTON 6.8 W, OH US",0.8869,GHCND:US1OHOT0009,METERS,-83.06833333
726,178.9,2023-08-31,2025-12-09,41.510804,"OAK HARBOR 0.4 W, OH US",0.9712,GHCND:US1OHOT0011,METERS,-83.15514
727,321.9,2009-02-08,2025-12-09,39.764721,"EATON 1.0 N, OH US",0.9854,GHCND:US1OHPB0001,METERS,-84.633806
728,325.2,2012-09-12,2025-11-28,39.743692,"EATON 1.1 WSW, OH US",0.8632,GHCND:US1OHPB0004,METERS,-84.65429
729,277.4,2013-06-26,2018-11-30,39.743893,"WEST ALEXANDRIA 0.5 W, OH US",0.3155,GHCND:US1OHPB0006,METERS,-84.5427349
730,323.7,2019-02-24,2019-07-22,39.7684,"EATON 1.4 N, OH US",0.9866,GHCND:US1OHPB0009,METERS,-84.6383
731,319.4,2019-07-23,2020-12-17,39.755302,"EATON 0.5 NNE, OH US",0.9805,GHCND:US1OHPB0010,METERS,-84.629742
732,356.3,2022-06-03,2025-11-24,39.8296977,"NEW PARIS 1.9 S, OH US",0.3328,GHCND:US1OHPB0012,METERS,-84.7933648
733,249.9,2009-06-01,2021-08-31,39.710884,"ASHVILLE 6.3 E, OH US",0.0782,GHCND:US1OHPC0001,METERS,-82.837472
734,236.8,2014-06-05,2025-11-22,39.593128,"WILLIAMSPORT 0.7 N, OH US",0.1394,GHCND:US1OHPC0004,METERS,-83.114885
735,217.9,2021-04-15,2025-12-09,39.6193475,"CIRCLEVILLE 1.5 NE, OH US",0.8906,GHCND:US1OHPC0007,METERS,-82.9240004
736,219.8,2022-03-31,2022-09-10,39.6192033,"CIRCLEVILLE 1.2 NNE, OH US",0.9695,GHCND:US1OHPC0008,METERS,-82.9335517
737,258.2,2022-01-31,2025-12-02,39.75854,"ORIENT 4.1 SE, OH US",0.2454,GHCND:US1OHPC0009,METERS,-83.10299
738,234.7,2023-01-01,2025-12-09,39.721517,"ASHVILLE 4.9 W, OH US",0.9916,GHCND:US1OHPC0010,METERS,-83.047658
739,262.7,2023-03-24,2025-12-07,39.6509924,"CIRCLEVILLE 4.3 NE, OH US",0.7818,GHCND:US1OHPC0012,METERS,-82.8897801
740,211.5,2020-04-13,2021-09-14,39.0525,"PIKETON 1.3 SSE, OH US",0.9981,GHCND:US1OHPK0001,METERS,-82.98806
741,206.0,2022-04-24,2025-12-09,39.173537,"WAVERLY 4.2 NE, OH US",0.8356,GHCND:US1OHPK0002,METERS,-82.934884
742,192.6,2024-04-27,2024-11-08,39.1084619,"WAVERLY 2.3 WSW, OH US",1.0,GHCND:US1OHPK0003,METERS,-83.0202426
743,212.4,2009-03-18,2019-04-27,41.2240162,"CECIL 0.3 N, OH US",0.3428,GHCND:US1OHPL0001,METERS,-84.6021553
744,219.2,2018-05-11,2025-11-25,41.09193,"PAULDING 5.6 ESE, OH US",0.6364,GHCND:US1OHPL0004,METERS,-84.49202
745,220.1,2018-08-25,2024-07-15,41.154572,"PAULDING 1.4 NNE, OH US",0.2472,GHCND:US1OHPL0005,METERS,-84.569123
746,225.6,2017-03-15,2025-12-09,41.03562,"OTTAWA 1.0 N, OH US",0.7303,GHCND:US1OHPN0010,METERS,-84.04323
747,226.5,2023-04-04,2025-12-09,41.108062,"LEIPSIC 5.4 W, OH US",0.999,GHCND:US1OHPN0014,METERS,-84.088268
748,225.2,2024-04-10,2025-11-26,41.02797,"OTTAWA 1.2 ENE, OH US",0.6662,GHCND:US1OHPN0016,METERS,-84.02112
749,330.1,2009-05-12,2010-08-13,41.147902,"KENT 2.0 E, OH US",0.9956,GHCND:US1OHPT0001,METERS,-81.323981
750,341.1,2009-02-10,2025-12-09,41.1598518,"RAVENNA 0.5 E, OH US",0.611,GHCND:US1OHPT0002,METERS,-81.2321081
751,321.9,2009-06-01,2010-11-09,41.155176,"RAVENNA 2.2 E, OH US",0.7932,GHCND:US1OHPT0003,METERS,-81.200791
752,342.0,2009-02-10,2010-07-26,41.154794,"RAVENNA 1.4 ESE, OH US",0.9474,GHCND:US1OHPT0005,METERS,-81.216661
753,349.0,2009-02-09,2009-12-09,41.20735,"RAVENNA 4.9 NE, OH US",0.7895,GHCND:US1OHPT0006,METERS,-81.17377
754,338.6,2009-05-28,2018-05-24,41.2113263,"RAVENNA 3.9 NNE, OH US",0.3876,GHCND:US1OHPT0007,METERS,-81.2133347
755,331.0,2009-03-19,2025-11-23,41.2097634,"STREETSBORO 2.1 SSW, OH US",0.9856,GHCND:US1OHPT0008,METERS,-81.3548141
756,353.6,2009-03-08,2025-12-09,41.31595089,"HIRAM 0.4 N, OH US",0.9463,GHCND:US1OHPT0009,METERS,-81.14342598
757,330.4,2009-02-22,2025-12-09,41.20083,"KENT 3.6 NE, OH US",0.913,GHCND:US1OHPT0010,METERS,-81.33889
758,357.8,2010-01-01,2025-12-07,41.008488,"MOGADORE 4.7 SE, OH US",1.0,GHCND:US1OHPT0012,METERS,-81.329049
759,390.8,2011-03-31,2025-12-08,41.2942081,"MANTUA 1.0 NNW, OH US",0.4759,GHCND:US1OHPT0013,METERS,-81.2316384
760,309.1,2014-11-14,2021-04-22,41.312248,"AURORA 2.0 W, OH US",0.0446,GHCND:US1OHPT0015,METERS,-81.38221
761,322.5,2009-02-21,2025-12-09,41.14718,"KENT 1.5 W, OH US",0.612,GHCND:US1OHPT0017,METERS,-81.390797
762,333.5,2021-08-01,2025-12-09,41.259925,"STREETSBORO 1.8 NW, OH US",0.9642,GHCND:US1OHPT0023,METERS,-81.3667446
763,331.9,2022-05-16,2025-12-09,41.103831,"ROOTSTOWN 0.5 NW, OH US",0.9624,GHCND:US1OHPT0024,METERS,-81.250475
764,338.3,2023-07-28,2025-12-09,41.1119,"KENT 4.2 SE, OH US",0.9561,GHCND:US1OHPT0025,METERS,-81.2978
765,274.3,2014-01-15,2017-03-06,39.726123,"NEW LEXINGTON 0.9 NNE, OH US",0.9468,GHCND:US1OHPY0001,METERS,-82.204532
766,345.0,2021-07-08,2022-05-28,39.822778,"SOMERSET 1.7 NW, OH US",0.5354,GHCND:US1OHPY0004,METERS,-82.323056
767,373.4,2009-03-22,2025-12-04,40.686397,"LEXINGTON 0.9 NW, OH US",0.8315,GHCND:US1OHRC0003,METERS,-82.599442
768,333.5,2015-11-18,2025-12-08,40.890047,"SHELBY 0.6 NNE, OH US",0.9026,GHCND:US1OHRC0007,METERS,-82.655814
769,393.2,2016-01-11,2025-12-01,40.7751922607422,"MANSFIELD 2.0 WNW, OH US",0.139,GHCND:US1OHRC0008,METERS,-82.5623397827148
770,438.0,2017-02-28,2025-12-09,40.7383499,"MANSFIELD 5.1 WSW, OH US",0.9844,GHCND:US1OHRC0009,METERS,-82.61833
771,417.0,2017-03-24,2017-07-12,40.755733,"ONTARIO 1.1 SE, OH US",0.9369,GHCND:US1OHRC0011,METERS,-82.592177
772,341.7,2018-09-30,2025-11-08,40.873493,"SHELBY 0.8 SE, OH US",0.2122,GHCND:US1OHRC0012,METERS,-82.651215
773,313.9,2021-03-05,2025-12-09,40.783885,"MANSFIELD 7.3 ENE, OH US",0.7984,GHCND:US1OHRC0014,METERS,-82.389802
774,,2020-04-09,2025-12-08,40.68587,"LEXINGTON 1.4 ENE, OH US",0.771,GHCND:US1OHRC0015,,-82.56144
775,376.4,2022-05-17,2025-12-09,40.746811,"GALION 3.7 ENE, OH US",0.9885,GHCND:US1OHRC0017,METERS,-82.722633
776,385.0,2023-03-26,2025-12-09,40.708214,"LEXINGTON 2.3 NNW, OH US",0.9929,GHCND:US1OHRC0018,METERS,-82.606018
777,256.3,2009-02-15,2018-01-28,39.2825,"CHILLICOTHE 3.7 S, OH US",0.915,GHCND:US1OHRS0001,METERS,-82.99446
778,223.1,2021-03-30,2024-11-19,39.229233,"BAINBRIDGE 0.5 ENE, OH US",0.3531,GHCND:US1OHRS0010,METERS,-83.261167
779,258.8,2023-03-23,2025-12-09,39.4188772,"CHILLICOTHE 7.1 NE, OH US",0.8912,GHCND:US1OHRS0014,METERS,-82.9101389
780,226.8,2023-04-04,2025-12-09,39.41522,"FRANKFORT 0.7 NE, OH US",0.9929,GHCND:US1OHRS0017,METERS,-83.17352
781,298.1,2023-09-01,2025-11-19,39.267806,"BAINBRIDGE 6.1 NNW, OH US",0.7275,GHCND:US1OHRS0018,METERS,-83.364571
782,162.8,2009-02-10,2018-09-27,38.758412,"SCIOTODALE 1.2 W, OH US",0.4802,GHCND:US1OHSC0001,METERS,-82.883169
783,189.6,2010-10-01,2025-12-08,38.787274,"ROSEMOUNT 0.3 W, OH US",0.7485,GHCND:US1OHSC0004,METERS,-82.977865
784,254.2,2012-06-06,2015-10-15,38.8295587152243,"LUCASVILLE 4.5 SE, OH US",0.5786,GHCND:US1OHSC0006,METERS,-82.9411051422358
785,208.2,2017-01-20,2023-01-11,38.8845,"LUCASVILLE 0.9 ENE, OH US",0.9501,GHCND:US1OHSC0008,METERS,-82.980176
786,247.5,2020-03-13,2025-12-08,38.80242,"PORTSMOUTH 3.3 N, OH US",0.8622,GHCND:US1OHSC0013,METERS,-82.95679
787,185.6,2009-02-07,2025-12-08,41.365826,"FREMONT 2.2 ENE, OH US",0.9963,GHCND:US1OHSD0002,METERS,-83.075386
788,197.8,2009-02-01,2012-08-20,41.3148042,"CLYDE 0.7 N, OH US",0.9476,GHCND:US1OHSD0003,METERS,-82.9761113
789,209.4,2012-04-29,2012-11-05,41.2924455106258,"CLYDE 1.8 WSW, OH US",0.6021,GHCND:US1OHSD0007,METERS,-83.0078291147947
790,191.7,2012-08-16,2014-10-31,41.3447799682617,"FREMONT 0.5 SW, OH US",0.9703,GHCND:US1OHSD0009,METERS,-83.1200637817383
791,318.8,2009-02-11,2012-07-20,40.344924,"SIDNEY 5.3 NE, OH US",0.6226,GHCND:US1OHSH0001,METERS,-84.093883
792,303.9,2009-03-01,2009-09-21,40.515785,"LAKEVIEW 2.6 NE, OH US",0.9268,GHCND:US1OHSH0002,METERS,-83.893159
793,302.7,2009-03-19,2025-11-09,40.43708,"ANNA 3.1 NNW, OH US",0.7921,GHCND:US1OHSH0004,METERS,-84.177844
794,286.5,2009-04-09,2016-12-14,40.248911,"HOUSTON 0.5 SE, OH US",0.7011,GHCND:US1OHSH0005,METERS,-84.330786
795,322.2,2009-05-09,2015-10-29,40.283,"SIDNEY 4.3 E, OH US",0.1755,GHCND:US1OHSH0007,METERS,-84.0816
796,299.3,1998-06-17,2021-12-16,40.329138,"FORT LORAMIE 2.1 SE, OH US",0.2404,GHCND:US1OHSH0009,METERS,-84.337489
797,306.0,2003-08-24,2025-12-09,40.2504853,"RUSSIA 1.3 NNE, OH US",0.6369,GHCND:US1OHSH0010,METERS,-84.4052586
798,298.1,2011-04-19,2025-12-09,40.2708906,"HOUSTON 1.3 NNE, OH US",0.9766,GHCND:US1OHSH0011,METERS,-84.3246597
799,313.9,2011-04-21,2012-07-28,40.3018751,"SIDNEY 1.9 ENE, OH US",0.5505,GHCND:US1OHSH0012,METERS,-84.1317202
800,299.3,2011-05-17,2025-12-08,40.3153157,"FORT LORAMIE 3.2 SW, OH US",0.9526,GHCND:US1OHSH0013,METERS,-84.4154331
801,289.9,2011-08-28,2025-12-07,40.356285,"FORT LORAMIE 2.1 WNW, OH US",0.9569,GHCND:US1OHSH0014,METERS,-84.407598
802,287.4,2012-02-01,2025-12-09,40.35694444,"FORT LORAMIE 0.8 NNW, OH US",0.9984,GHCND:US1OHSH0015,METERS,-84.37361111
803,317.6,2014-04-13,2018-09-28,40.3147152811289,"SIDNEY 1.9 NNE, OH US",0.9086,GHCND:US1OHSH0016,METERS,-84.151903912425
804,311.5,2017-06-24,2025-09-25,40.324811,"SIDNEY 2.9 NNE, OH US",0.4105,GHCND:US1OHSH0018,METERS,-84.135083
805,282.9,2018-04-03,2025-12-09,40.237079,"SIDNEY 5.4 SW, OH US",0.9996,GHCND:US1OHSH0020,METERS,-84.24076
806,348.4,2009-02-03,2010-12-10,41.072344,"AKRON 3.1 E, OH US",0.6598,GHCND:US1OHSM0002,METERS,-81.463511
807,311.2,2009-02-13,2011-11-05,41.3196,"MACEDONIA 1.2 WNW, OH US",0.8896,GHCND:US1OHSM0003,METERS,-81.5185
808,312.7,2009-03-01,2017-07-28,41.320279,"MACEDONIA 0.7 NNW, OH US",0.9824,GHCND:US1OHSM0004,METERS,-81.501224
809,303.0,2009-03-07,2025-12-08,41.16227722,"CUYAHOGA FALLS 1.1 ESE, OH US",0.9997,GHCND:US1OHSM0005,METERS,-81.50374603
810,355.7,2009-03-23,2011-09-17,41.091761,"TALLMADGE 0.8 S, OH US",0.2992,GHCND:US1OHSM0006,METERS,-81.42408
811,345.3,2009-03-18,2009-10-20,41.1667085,"STOW 0.8 SE, OH US",0.9124,GHCND:US1OHSM0007,METERS,-81.4268674
812,317.6,2009-03-30,2025-10-15,41.176522,"CUYAHOGA FALLS 0.7 NE, OH US",0.068,GHCND:US1OHSM0008,METERS,-81.514314
813,340.5,2009-04-10,2011-10-20,40.960402,"CLINTON 3.5 NE, OH US",0.3171,GHCND:US1OHSM0009,METERS,-81.578803
814,293.5,2009-04-19,2012-02-21,40.919681,"CLINTON 3.2 ESE, OH US",0.7122,GHCND:US1OHSM0010,METERS,-81.570514
815,310.0,2010-04-05,2012-01-20,40.953363,"AKRON 8.9 S, OH US",0.9543,GHCND:US1OHSM0014,METERS,-81.523914
816,339.5,2010-04-14,2014-04-20,41.065181,"AKRON 3.6 ESE, OH US",0.6396,GHCND:US1OHSM0015,METERS,-81.455697
817,337.7,2010-12-11,2015-08-20,41.160253,"STOW 1.6 SE, OH US",0.9971,GHCND:US1OHSM0016,METERS,-81.415596
818,336.2,2011-04-03,2014-01-17,41.1499,"MUNROE FALLS 0.7 NNW, OH US",0.716,GHCND:US1OHSM0017,METERS,-81.439
819,306.0,2013-11-17,2025-12-08,41.122936,"FAIRLAWN 0.2 SW, OH US",0.9092,GHCND:US1OHSM0022,METERS,-81.625194
820,310.9,2014-03-30,2017-08-19,41.038825,"AKRON 2.9 S, OH US",0.3132,GHCND:US1OHSM0025,METERS,-81.524778
821,338.6,2014-04-05,2025-11-26,41.1486667,"MUNROE FALLS 0.7 NNE, OH US",0.7073,GHCND:US1OHSM0026,METERS,-81.4306667
822,272.5,2014-06-18,2021-04-11,41.114451,"AKRON 2.4 NNW, OH US",0.0558,GHCND:US1OHSM0027,METERS,-81.534418
823,307.2,2015-09-08,2016-05-26,40.98121,"AKRON 7.0 S, OH US",0.4275,GHCND:US1OHSM0028,METERS,-81.540686
824,337.1,2017-04-29,2025-11-27,41.07979,"AKRON 2.6 E, OH US",0.7097,GHCND:US1OHSM0032,METERS,-81.47098
825,304.2,2020-04-20,2022-05-10,41.08008,"AKRON 2.4 W, OH US",0.8815,GHCND:US1OHSM0038,METERS,-81.56801
826,371.9,2020-04-17,2025-12-09,41.114027,"TALLMADGE 0.8 NNE, OH US",0.9743,GHCND:US1OHSM0039,METERS,-81.419702
827,296.6,2020-12-31,2021-11-13,41.040576,"BARBERTON 2.4 NE, OH US",0.7736,GHCND:US1OHSM0040,METERS,-81.578391
828,366.4,2022-05-18,2025-11-26,41.2552,"RICHFIELD 1.7 NNW, OH US",0.4088,GHCND:US1OHSM0044,METERS,-81.6495
829,304.8,2023-04-24,2025-12-08,41.330744,"REMINDERVILLE 0.3 NNE, OH US",0.8323,GHCND:US1OHSM0046,METERS,-81.394969
830,347.5,2023-07-27,2025-10-20,41.31817,"MACEDONIA 0.7 NE, OH US",0.3035,GHCND:US1OHSM0047,METERS,-81.48773
831,244.1,2009-02-21,2015-09-09,41.205,"BELLEVUE 4.9 S, OH US",0.9954,GHCND:US1OHSN0001,METERS,-82.838
832,236.8,1998-06-17,2025-10-31,41.13143,"BASCOM 0.3 ESE, OH US",0.168,GHCND:US1OHSN0002,METERS,-83.28077
833,254.2,2002-02-11,2025-12-08,41.0589354,"TIFFIN 5.2 SE, OH US",0.6832,GHCND:US1OHSN0003,METERS,-83.1126723
834,324.0,2013-05-10,2020-10-30,40.8415,"CANTON 2.8 NE, OH US",0.1604,GHCND:US1OHST0002,METERS,-81.3367
835,318.2,2018-11-27,2019-12-30,40.832211,"CANTON 5.8 WNW, OH US",0.7945,GHCND:US1OHST0006,METERS,-81.480857
836,353.9,2023-03-27,2025-12-09,40.8224,"CANTON 2.0 ENE, OH US",0.8696,GHCND:US1OHST0011,METERS,-81.33738
837,385.0,2023-03-21,2025-12-09,40.8517,"ALLIANCE 4.8 SSW, OH US",0.994,GHCND:US1OHST0012,METERS,-81.1631
838,303.3,2009-03-09,2013-11-08,41.39,"KINSMAN 4.3 SW, OH US",0.8042,GHCND:US1OHTR0001,METERS,-80.63
839,275.2,2010-09-13,2025-12-07,41.197735,"NEWTON FALLS 0.6 N, OH US",0.9971,GHCND:US1OHTR0004,METERS,-80.972115
840,302.1,2018-03-11,2018-11-04,41.16135,"HUBBARD 0.4 ENE, OH US",0.6653,GHCND:US1OHTR0010,METERS,-80.56164
841,284.7,2018-09-22,2025-10-08,41.32616,"WARREN 6.1 N, OH US",0.324,GHCND:US1OHTR0011,METERS,-80.82683167
842,322.2,2022-04-23,2025-12-09,41.343012,"CORTLAND 1.2 NE, OH US",0.7822,GHCND:US1OHTR0013,METERS,-80.705935
843,346.6,2022-03-16,2025-12-02,41.1955968,"GIRARD 3.9 NE, OH US",0.7894,GHCND:US1OHTR0014,METERS,-80.6453042
844,322.8,2023-03-04,2025-11-26,41.353038,"CORTLAND 1.7 NNE, OH US",0.1972,GHCND:US1OHTR0017,METERS,-80.707003
845,285.0,2009-02-02,2025-12-08,40.5507,"DOVER 4.6 WNW, OH US",0.9402,GHCND:US1OHTS0001,METERS,-81.564
846,287.1,2009-04-22,2009-10-31,40.630398,"BOLIVAR 1.9 SE, OH US",0.7409,GHCND:US1OHTS0002,METERS,-81.430427
847,279.5,1998-06-17,2019-06-02,40.530177,"DOVER 1.0 E, OH US",0.2967,GHCND:US1OHTS0004,METERS,-81.461096
848,280.1,2013-03-03,2017-04-29,40.6020164489746,"STRASBURG 0.1 ESE, OH US",0.7946,GHCND:US1OHTS0006,METERS,-81.5283660888672
849,284.4,2015-07-02,2016-07-11,40.5495,"DOVER 1.5 NNW, OH US",0.9734,GHCND:US1OHTS0007,METERS,-81.4904
850,303.9,2016-07-12,2025-12-09,40.51136,"SUGARCREEK 0.9 ENE, OH US",0.9747,GHCND:US1OHTS0008,METERS,-81.625728
851,260.6,2018-08-21,2025-12-09,40.409887,"UHRICHSVILLE 0.7 N, OH US",0.9505,GHCND:US1OHTS0014,METERS,-81.353197
852,266.7,2019-05-13,2021-07-17,40.486043,"NEW PHILADELPHIA 2.4 W, OH US",0.2961,GHCND:US1OHTS0015,METERS,-81.486105
853,294.1,2020-10-05,2024-02-17,40.5205,"MINERAL CITY 7.2 SE, OH US",0.2323,GHCND:US1OHTS0019,METERS,-81.27689
854,279.5,2022-08-31,2025-12-09,40.4445424,"NEW PHILADELPHIA 5.6 WSW, OH US",0.9165,GHCND:US1OHTS0024,METERS,-81.531691
855,299.0,2009-04-20,2009-10-29,40.256432,"MARYSVILLE 1.5 NNE, OH US",0.8135,GHCND:US1OHUN0001,METERS,-83.35962
856,307.2,2010-05-10,2010-11-27,40.2220903,"MARYSVILLE 1.1 SSE, OH US",0.9455,GHCND:US1OHUN0003,METERS,-83.3674912
857,309.4,2020-10-08,2023-08-24,40.255666,"MARYSVILLE 1.4 NNW, OH US",0.5538,GHCND:US1OHUN0015,METERS,-83.387327
858,300.8,2021-04-11,2021-11-22,40.24388889,"MARYSVILLE 1.9 ENE, OH US",0.5221,GHCND:US1OHUN0017,METERS,-83.33916667
859,301.8,2021-07-01,2025-12-06,40.272664,"MARYSVILLE 6.1 ENE, OH US",0.9691,GHCND:US1OHUN0018,METERS,-83.267966
860,313.0,2022-04-25,2023-02-07,40.213279,"MARYSVILLE 1.7 S, OH US",0.5536,GHCND:US1OHUN0019,METERS,-83.370334
861,307.5,2023-03-03,2025-12-09,40.153333184552,"PLAIN CITY 4.1 NE, OH US",0.9151,GHCND:US1OHUN0020,METERS,-83.2231868103345
862,303.6,2023-12-30,2025-12-09,40.242459,"MARYSVILLE 1.3 ENE, OH US",0.9705,GHCND:US1OHUN0021,METERS,-83.35077
863,289.0,2009-08-31,2012-02-01,39.249,"MCARTHUR 2.4 W, OH US",0.8565,GHCND:US1OHVN0001,METERS,-82.523
864,271.9,2018-01-29,2025-11-27,39.251218,"ALBANY 4.5 WNW, OH US",0.9664,GHCND:US1OHVN0003,METERS,-82.274717
865,227.7,2024-04-09,2025-12-08,39.263254,"MCARTHUR 7.0 W, OH US",0.89,GHCND:US1OHVN0005,METERS,-82.606954
866,189.9,2009-01-28,2009-07-01,41.559933,"PERRYSBURG 4.5 E, OH US",0.6516,GHCND:US1OHWD0001,METERS,-83.537914
867,203.9,2009-01-28,2015-01-06,41.39121,"BOWLING GREEN 1.7 NW, OH US",0.6217,GHCND:US1OHWD0002,METERS,-83.675149
868,184.7,2009-02-09,2014-03-11,41.618586,"NORTHWOOD 2.8 ENE, OH US",0.8088,GHCND:US1OHWD0003,METERS,-83.427694
869,207.9,2009-04-26,2025-12-07,41.384963,"BRADNER 4.2 N, OH US",0.1005,GHCND:US1OHWD0008,METERS,-83.438156
870,188.4,2009-07-10,2016-12-10,41.58776,"WALBRIDGE 0.2 NNW, OH US",0.1793,GHCND:US1OHWD0009,METERS,-83.4911
871,196.6,2010-03-29,2014-02-13,41.49251,"PERRYSBURG 6.0 SE, OH US",0.9598,GHCND:US1OHWD0010,METERS,-83.540645
872,205.7,2011-01-03,2025-12-08,41.408239,"BOWLING GREEN 2.7 NW, OH US",0.9672,GHCND:US1OHWD0012,METERS,-83.671614
873,194.2,2013-04-01,2025-12-09,41.54114,"PERRYSBURG 1.6 WSW, OH US",0.9922,GHCND:US1OHWD0014,METERS,-83.64973
874,208.2,2014-03-08,2014-09-11,41.3722479343414,"BOWLING GREEN 1.5 W, OH US",0.7234,GHCND:US1OHWD0015,METERS,-83.6776947230101
875,189.0,2014-04-14,2025-09-23,41.581751,"PERRYSBURG 5.2 ENE, OH US",0.05,GHCND:US1OHWD0016,METERS,-83.530708
876,205.7,2015-08-28,2020-09-27,41.387302,"BOWLING GREEN 1.7 WNW, OH US",0.9925,GHCND:US1OHWD0019,METERS,-83.678497
877,210.9,2018-03-29,2025-12-09,41.375707,"BOWLING GREEN 0.8 W, OH US",0.9666,GHCND:US1OHWD0023,METERS,-83.664068
878,211.2,2021-06-08,2025-12-05,41.3002,"WAYNE 0.3 ESE, OH US",0.9604,GHCND:US1OHWD0026,METERS,-83.467
879,188.4,2023-03-27,2025-12-09,41.5918594657036,"NORTHWOOD 1.8 SE, OH US",0.9302,GHCND:US1OHWD0027,METERS,-83.454885079498
880,223.7,2023-04-13,2025-12-08,41.21471,"FOSTORIA 4.1 NNW, OH US",0.3944,GHCND:US1OHWD0028,METERS,-83.440958
881,195.7,2023-05-11,2025-04-25,41.507358,"PERRYSBURG 4.5 SW, OH US",0.5265,GHCND:US1OHWD0030,METERS,-83.685031
882,223.1,2009-02-27,2015-12-29,41.47241,"BRYAN 1.3 E, OH US",0.7453,GHCND:US1OHWL0002,METERS,-84.522881
883,287.7,2009-11-28,2015-10-24,41.694272,"PIONEER 4.6 WNW, OH US",0.2096,GHCND:US1OHWL0003,METERS,-84.637828
884,253.0,2010-05-01,2025-12-08,41.6654,"ALVORDTON 0.5 E, OH US",0.997,GHCND:US1OHWL0005,METERS,-84.4244
885,267.9,2010-06-02,2013-11-23,41.68171,"PIONEER 0.3 NE, OH US",0.5264,GHCND:US1OHWL0006,METERS,-84.54752
886,287.4,2014-03-26,2016-09-26,41.6942256689072,"PIONEER 4.6 WNW, OH US",0.2533,GHCND:US1OHWL0007,METERS,-84.6378745883703
887,266.4,2014-04-01,2025-11-26,41.644969,"PIONEER 2.3 S, OH US",0.2628,GHCND:US1OHWL0008,METERS,-84.55218
888,244.1,2022-05-24,2025-08-27,41.4874117,"BRYAN 2.1 NW, OH US",0.4119,GHCND:US1OHWL0010,METERS,-84.5816405
889,360.0,2009-02-04,2019-12-24,40.75209,"KIDRON 0.7 N, OH US",0.8878,GHCND:US1OHWN0001,METERS,-81.745947
890,278.0,2012-04-22,2025-10-22,40.761131,"WOOSTER 4.8 SW, OH US",0.3581,GHCND:US1OHWN0003,METERS,-81.984922
891,345.0,2013-02-08,2018-12-14,40.894591,"WOOSTER 5.4 NNE, OH US",0.7594,GHCND:US1OHWN0004,METERS,-81.906609
892,339.2,2018-11-19,2025-12-09,40.77189,"APPLE CREEK 2.3 NE, OH US",0.649,GHCND:US1OHWN0008,METERS,-81.80253
893,363.3,2019-01-19,2022-01-16,40.91638889,"WEST SALEM 4.1 SSE, OH US",0.1554,GHCND:US1OHWN0010,METERS,-82.07388889
894,332.5,2023-09-06,2025-12-09,40.951263,"WEST SALEM 1.3 SSE, OH US",0.9407,GHCND:US1OHWN0012,METERS,-82.101521
895,363.9,2020-11-15,2025-12-09,40.695403,"MOUNT EATON 0.2 W, OH US",0.9946,GHCND:US1OHWN0014,METERS,-81.705944
896,302.1,2022-03-21,2025-12-02,40.9494491,"RITTMAN 1.7 SSE, OH US",0.3917,GHCND:US1OHWN0018,METERS,-81.7690837
897,335.3,2022-05-19,2025-10-20,40.84039,"SMITHVILLE 1.7 SSE, OH US",0.2262,GHCND:US1OHWN0019,METERS,-81.84853
898,354.5,2022-04-20,2025-12-09,40.863844,"WEST SALEM 7.4 S, OH US",0.915,GHCND:US1OHWN0020,METERS,-82.084226
899,351.4,2023-03-16,2025-12-09,40.957466,"DOYLESTOWN 2.0 ESE, OH US",0.932,GHCND:US1OHWN0021,METERS,-81.662445
900,210.9,2009-03-28,2012-09-22,39.4307,"LEBANON 0.3 NW, OH US",0.3475,GHCND:US1OHWR0002,METERS,-84.2166
901,220.4,2010-08-12,2012-08-27,39.280103,"LOVELAND 1.6 NE, OH US",0.1901,GHCND:US1OHWR0007,METERS,-84.249608
